{
  "confirmed": 0,
  "elapsed": "1m15.284925375s",
  "listedOnly": 13,
  "misses": 18,
  "platform": "chronogolf",
  "results": [
    {
      "input": "Earlywine Golf Club - North",
      "city": "Oklahoma City",
      "slug": "",
      "slugSource": "",
      "status": "miss"
    },
    {
      "input": "Earlywine Golf Club - South",
      "city": "Oklahoma City",
      "slug": "",
      "slugSource": "",
      "status": "miss"
    },
    {
      "input": "Lake Hefner Golf Club - North",
      "city": "Oklahoma City",
      "slug": "",
      "slugSource": "",
      "status": "miss"
    },
    {
      "input": "Lake Hefner Golf Club - South",
      "city": "Oklahoma City",
      "slug": "",
      "slugSource": "",
      "status": "miss"
    },
    {
      "input": "Lincoln Park Golf Course - East",
      "city": "Oklahoma City",
      "slug": "",
      "slugSource": "",
      "status": "miss"
    },
    {
      "input": "Lincoln Park Golf Course - West",
      "city": "Oklahoma City",
      "slug": "",
      "slugSource": "",
      "status": "miss"
    },
    {
      "input": "Trosper Golf Club",
      "city": "Oklahoma City",
      "slug": "trosper-golf-club",
      "slugSource": "name+state",
      "status": "listed_only",
      "club": {
        "uuid": "e77f4030-9279-4748-a9e7-c043c5c4bd62",
        "id": 11845,
        "name": "Trosper Golf Club",
        "slug": "trosper-golf-club",
        "city": "Oklahoma City",
        "province": "Oklahoma",
        "country": "United States",
        "address": "2301 SE 29th St",
        "phone": "(405) 677-8874",
        "website": "",
        "postcode": "73129",
        "defaultAffiliationTypeId": 48202,
        "location": {
          "lat": 35.435287,
          "lon": -97.472768
        },
        "courses": [
          {
            "id": 13566,
            "name": "Trosper",
            "holes": 18,
            "uuid": "93f0992f-8a52-43f5-87e2-eb286112a18d"
          }
        ]
      },
      "datesChecked": [
        "2026-02-18",
        "2026-02-21",
        "2026-02-28"
      ],
      "teeTimes": [
        0,
        0,
        0
      ]
    },
    {
      "input": "James E. Stewart Golf Course",
      "city": "Oklahoma City",
      "slug": "",
      "slugSource": "",
      "status": "miss"
    },
    {
      "input": "The Links at Oklahoma City Golf \u0026 Athletic Club",
      "city": "Oklahoma City",
      "slug": "",
      "slugSource": "",
      "status": "miss"
    },
    {
      "input": "Kickingbird Golf Club",
      "city": "Edmond",
      "slug": "",
      "slugSource": "",
      "status": "miss"
    },
    {
      "input": "Golf Club of Edmond",
      "city": "Edmond",
      "slug": "",
      "slugSource": "",
      "status": "miss"
    },
    {
      "input": "Coffee Creek Golf Club",
      "city": "Edmond",
      "slug": "coffee-creek-golf-club",
      "slugSource": "name+state",
      "status": "listed_only",
      "club": {
        "uuid": "61f92bbf-d8f3-4b3d-a3f8-7fe7cc853be7",
        "id": 11717,
        "name": "Coffee Creek Golf Club",
        "slug": "coffee-creek-golf-club",
        "city": "Edmond",
        "province": "Oklahoma",
        "country": "United States",
        "address": "4000 N Kelly Ave",
        "phone": "(405) 340-4653",
        "website": "http://www.coffeecreekgolfclub.com",
        "postcode": "73003",
        "defaultAffiliationTypeId": 47690,
        "location": {
          "lat": 35.695645,
          "lon": -97.49625
        },
        "courses": [
          {
            "id": 13430,
            "name": "Coffee Creek",
            "holes": 18,
            "uuid": "0b077a4c-4523-4622-be38-bfb248d0e17e"
          }
        ]
      },
      "datesChecked": [
        "2026-02-18",
        "2026-02-21",
        "2026-02-28"
      ],
      "teeTimes": [
        0,
        0,
        0
      ]
    },
    {
      "input": "Rose Creek Golf Club",
      "city": "Edmond",
      "slug": "",
      "slugSource": "",
      "status": "miss"
    },
    {
      "input": "Jimmie Austin OU Golf Club",
      "city": "Norman",
      "slug": "",
      "slugSource": "",
      "status": "miss"
    },
    {
      "input": "Westwood Golf Course",
      "city": "Norman",
      "slug": "westwood-golf-club",
      "slugSource": "swap-golf-club",
      "status": "wrong_state",
      "club": {
        "uuid": "f431faa3-f6ad-4c92-942c-1cdfbbb88625",
        "id": 10098,
        "name": "Westwood Golf Club",
        "slug": "westwood-golf-club-new-jersey",
        "city": "Woodbury",
        "province": "New Jersey",
        "country": "United States",
        "address": "850 Kings Hwy",
        "phone": "(856) 845-2000",
        "website": "http://www.westwoodgolfclub.com",
        "postcode": "8096",
        "defaultAffiliationTypeId": 41214,
        "location": {
          "lat": 39.825924,
          "lon": -75.172275
        },
        "courses": [
          {
            "id": 11588,
            "name": "Westwood",
            "holes": 18,
            "uuid": "f5be29dd-4637-4944-89cf-bb21cbc20980"
          }
        ]
      }
    },
    {
      "input": "The Trails Golf Club",
      "city": "Norman",
      "slug": "the-trails-golf-club",
      "slugSource": "name+state",
      "status": "listed_only",
      "club": {
        "uuid": "464049a3-2f95-41e6-a8fc-ae26ab1d99fa",
        "id": 11840,
        "name": "The Trails Golf Club",
        "slug": "the-trails-golf-club",
        "city": "Norman",
        "province": "Oklahoma",
        "country": "United States",
        "address": "3200 S Berry Rd",
        "phone": "(405) 360-1920",
        "website": "http://www.trailsgolf.com",
        "postcode": "73072",
        "defaultAffiliationTypeId": 48182,
        "location": {
          "lat": 35.185468,
          "lon": -97.462424
        },
        "courses": [
          {
            "id": 13561,
            "name": "The Trails",
            "holes": 18,
            "uuid": "fb053199-986b-4762-9edc-7929e0697755"
          }
        ]
      },
      "datesChecked": [
        "2026-02-18",
        "2026-02-21",
        "2026-02-28"
      ],
      "teeTimes": [
        0,
        0,
        0
      ]
    },
    {
      "input": "Cobblestone Creek Golf Course",
      "city": "Norman",
      "slug": "cobblestone-creek-golf-club",
      "slugSource": "swap-golf-club",
      "status": "listed_only",
      "club": {
        "uuid": "bf8443cd-460b-4a6b-94ad-4be8f9634a11",
        "id": 11716,
        "name": "Cobblestone Creek Golf Club",
        "slug": "cobblestone-creek-golf-club",
        "city": "Muskogee",
        "province": "Oklahoma",
        "country": "United States",
        "address": "700 E Smith Ferry Rd",
        "phone": "(918) 682-4845",
        "website": "http://www.cobblestonecreekgolf.com",
        "postcode": "74403",
        "defaultAffiliationTypeId": 47686,
        "location": {
          "lat": 35.133898,
          "lon": -97.388756
        },
        "courses": [
          {
            "id": 13429,
            "name": "Cobblestone Creek ",
            "holes": 18,
            "uuid": "b93e1097-dc97-48c0-bb35-10b2b2def78e"
          }
        ]
      },
      "datesChecked": [
        "2026-02-18",
        "2026-02-21",
        "2026-02-28"
      ],
      "teeTimes": [
        0,
        0,
        0
      ]
    },
    {
      "input": "Belmar Golf Club",
      "city": "Norman",
      "slug": "",
      "slugSource": "",
      "status": "miss"
    },
    {
      "input": "John Conrad Regional Golf Course",
      "city": "Midwest City",
      "slug": "",
      "slugSource": "",
      "status": "miss"
    },
    {
      "input": "Moore Golf \u0026 Athletic Club",
      "city": "Moore",
      "slug": "",
      "slugSource": "",
      "status": "miss"
    },
    {
      "input": "Choctaw Creek Golf Course",
      "city": "Choctaw",
      "slug": "choctaw-creek-golf-course",
      "slugSource": "name+state",
      "status": "listed_only",
      "club": {
        "uuid": "680b6f5d-e73e-40f8-9bca-76435a24c03e",
        "id": 11712,
        "name": "Choctaw Creek Golf Course",
        "slug": "choctaw-creek-golf-course",
        "city": "Choctaw",
        "province": "Oklahoma",
        "country": "United States",
        "address": "2200 N Hiawassee Rd",
        "phone": "(405) 769-7166",
        "website": "http://www.chocktawcreekgolf.com",
        "postcode": "73020",
        "defaultAffiliationTypeId": 47670,
        "location": {
          "lat": 35.492056,
          "lon": -97.300458
        },
        "courses": [
          {
            "id": 13424,
            "name": "Choctaw Creek",
            "holes": 18,
            "uuid": "d9c5b110-42a2-4d0f-b2a0-2a2c207d1ca9"
          }
        ]
      },
      "datesChecked": [
        "2026-02-18",
        "2026-02-21",
        "2026-02-28"
      ],
      "teeTimes": [
        0,
        0,
        0
      ]
    },
    {
      "input": "Pebble Creek Golf Course",
      "city": "Mustang",
      "slug": "pebble-creek-golf-course-oklahoma",
      "slugSource": "name+state",
      "status": "listed_only",
      "club": {
        "uuid": "8ee74a25-736e-4dd0-a598-fd81182c5eef",
        "id": 11798,
        "name": "Pebble Creek Golf Course",
        "slug": "pebble-creek-golf-course-oklahoma",
        "city": "Mustang",
        "province": "Oklahoma",
        "country": "United States",
        "address": "355 E Pebble Creek Ter",
        "phone": "(405) 376-8892",
        "website": "",
        "postcode": "73064",
        "defaultAffiliationTypeId": 48014,
        "location": {
          "lat": 35.39289,
          "lon": -97.718247
        },
        "courses": [
          {
            "id": 13518,
            "name": "Pebble Creek",
            "holes": 9,
            "uuid": "6a799d2a-d2ef-4421-ba00-2f3ba6f02a93"
          }
        ]
      },
      "datesChecked": [
        "2026-02-18",
        "2026-02-21",
        "2026-02-28"
      ],
      "teeTimes": [
        0,
        0,
        0
      ]
    },
    {
      "input": "Surrey Hills Golf Club",
      "city": "Yukon",
      "slug": "surrey-hills-country-club",
      "slugSource": "swap-country-club",
      "status": "listed_only",
      "club": {
        "uuid": "135f440c-996a-404e-b753-41eaf9d6e4c2",
        "id": 11832,
        "name": "Surrey Hills Country Club",
        "slug": "surrey-hills-country-club",
        "city": "Yukon",
        "province": "Oklahoma",
        "country": "United States",
        "address": "11340 Surrey Hills Blvd",
        "phone": "(405) 373-2471",
        "website": "",
        "postcode": "73099",
        "defaultAffiliationTypeId": 48150,
        "location": {
          "lat": 35.590219,
          "lon": -97.726699
        },
        "courses": [
          {
            "id": 13553,
            "name": "Surrey Hills",
            "holes": 18,
            "uuid": "a760de10-3cab-42cb-97cf-aba9a58530ef"
          }
        ]
      },
      "datesChecked": [
        "2026-02-18",
        "2026-02-21",
        "2026-02-28"
      ],
      "teeTimes": [
        0,
        0,
        0
      ]
    },
    {
      "input": "Winter Creek Golf \u0026 Country Club",
      "city": "Blanchard",
      "slug": "",
      "slugSource": "",
      "status": "miss"
    },
    {
      "input": "Cedar Valley Golf Club",
      "city": "Guthrie",
      "slug": "cedar-valley-golf-club-oklahoma",
      "slugSource": "name+state",
      "status": "listed_only",
      "club": {
        "uuid": "d65c7e23-6cb0-4e5b-9580-73c610b306d6",
        "id": 11705,
        "name": "Cedar Valley Golf Club",
        "slug": "cedar-valley-golf-club-oklahoma",
        "city": "Guthrie",
        "province": "Oklahoma",
        "country": "United States",
        "address": "210 Par Ave",
        "phone": "(405) 282-4800",
        "website": "http://www.cedarvalleygc.com",
        "postcode": "73044",
        "defaultAffiliationTypeId": 47642,
        "location": {
          "lat": 35.871237,
          "lon": -97.564501
        },
        "courses": [
          {
            "id": 13417,
            "name": "International",
            "holes": 18,
            "uuid": "628f1654-99bf-4057-b55b-00b7c46bc543"
          },
          {
            "id": 13416,
            "name": "Augusta",
            "holes": 18,
            "uuid": "35be091e-8d96-4f94-8ca9-7fd3323008be"
          }
        ]
      },
      "datesChecked": [
        "2026-02-18",
        "2026-02-21",
        "2026-02-28"
      ],
      "teeTimes": [
        0,
        0,
        0
      ]
    },
    {
      "input": "Cimarron National Golf Club",
      "city": "Guthrie",
      "slug": "cimarron-national-golf-club",
      "slugSource": "name+state",
      "status": "listed_only",
      "club": {
        "uuid": "021f28bb-7cdd-43b7-a6b0-cc270ec5b019",
        "id": 11714,
        "name": "Cimarron National Golf Club",
        "slug": "cimarron-national-golf-club",
        "city": "Guthrie",
        "province": "Oklahoma",
        "country": "United States",
        "address": "500 Duffys Way",
        "phone": "(405) 282-7888",
        "website": "http://www.cimarronnational.com",
        "postcode": "73044",
        "defaultAffiliationTypeId": 47678,
        "location": {
          "lat": 35.870877,
          "lon": -97.487695
        },
        "courses": [
          {
            "id": 13426,
            "name": "Aqua Canyon",
            "holes": 18,
            "uuid": "3f3e1828-f620-45fe-84f1-d7c03b833996"
          },
          {
            "id": 13427,
            "name": "Cimarron",
            "holes": 18,
            "uuid": "a2eabcda-f545-42c9-8888-9c247ec0426d"
          }
        ]
      },
      "datesChecked": [
        "2026-02-18",
        "2026-02-21",
        "2026-02-28"
      ],
      "teeTimes": [
        0,
        0,
        0
      ]
    },
    {
      "input": "Firelake Golf Course",
      "city": "Shawnee",
      "slug": "",
      "slugSource": "",
      "status": "miss"
    },
    {
      "input": "Crimson Creek Golf Club",
      "city": "El Reno",
      "slug": "crimson-creek-golf-club",
      "slugSource": "name+state",
      "status": "listed_only",
      "club": {
        "uuid": "250bbb1f-f101-452f-87fc-557aed241340",
        "id": 11721,
        "name": "Crimson Creek Golf Club",
        "slug": "crimson-creek-golf-club",
        "city": "El Reno",
        "province": "Oklahoma",
        "country": "United States",
        "address": "800 Babcock Dr",
        "phone": "(405) 422-4653",
        "website": "http://www.crimsoncreek.com",
        "postcode": "73036",
        "defaultAffiliationTypeId": 47706,
        "location": {
          "lat": 35.527655,
          "lon": -97.982364
        },
        "courses": [
          {
            "id": 13434,
            "name": "Crimson Creek",
            "holes": 18,
            "uuid": "1d1aac7b-0d00-4ea8-bb44-b4dae43a8bb7"
          }
        ]
      },
      "datesChecked": [
        "2026-02-18",
        "2026-02-21",
        "2026-02-28"
      ],
      "teeTimes": [
        0,
        0,
        0
      ]
    },
    {
      "input": "Brent Bruehl Memorial Golf Course",
      "city": "Purcell",
      "slug": "brent-bruehl-memorial-golf-club",
      "slugSource": "swap-golf-club",
      "status": "listed_only",
      "club": {
        "uuid": "c51df8bf-9581-4b86-824e-069fc1474639",
        "id": 11696,
        "name": "Brent Bruehl Memorial Golf Club",
        "slug": "brent-bruehl-memorial-golf-club",
        "city": "Purcell",
        "province": "Oklahoma",
        "country": "United States",
        "address": "1400 Chandler Rd",
        "phone": "(405) 527-5114",
        "website": "",
        "postcode": "73080",
        "defaultAffiliationTypeId": 47606,
        "location": {
          "lat": 34.9876888,
          "lon": -97.3787103
        },
        "courses": [
          {
            "id": 13407,
            "name": "Brent Bruehl Memorial",
            "holes": 18,
            "uuid": "3fbae205-08fe-460a-8d29-2cbedc91919b"
          }
        ]
      },
      "datesChecked": [
        "2026-02-18",
        "2026-02-21",
        "2026-02-28"
      ],
      "teeTimes": [
        0,
        0,
        0
      ]
    },
    {
      "input": "Chickasha Golf \u0026 Country Club",
      "city": "Chickasha",
      "slug": "",
      "slugSource": "",
      "status": "miss"
    },
    {
      "input": "Lakeside Memorial Golf Course",
      "city": "Stillwater",
      "slug": "lakeside-memorial-golf-club",
      "slugSource": "swap-golf-club",
      "status": "listed_only",
      "club": {
        "uuid": "39ff7bb5-8ec1-4c3e-8256-159782e92730",
        "id": 11763,
        "name": "Lakeside Memorial Golf Club",
        "slug": "lakeside-memorial-golf-club",
        "city": "Stillwater",
        "province": "Oklahoma",
        "country": "United States",
        "address": "Hwy 177",
        "phone": "(405) 372-3399",
        "website": "",
        "postcode": "74075",
        "defaultAffiliationTypeId": 47874,
        "location": {
          "lat": 36.130511,
          "lon": -97.069455
        },
        "courses": [
          {
            "id": 13480,
            "name": "Lakeside Memorial",
            "holes": 18,
            "uuid": "6c971a2e-23be-4994-a7c0-fb7461233a5c"
          }
        ]
      },
      "datesChecked": [
        "2026-02-18",
        "2026-02-21",
        "2026-02-28"
      ],
      "teeTimes": [
        0,
        0,
        0
      ]
    },
    {
      "input": "Chandler Golf Course",
      "city": "Chandler",
      "slug": "chandler-golf-course",
      "slugSource": "name+state",
      "status": "listed_only",
      "club": {
        "uuid": "4054cd9d-1231-48e6-96dd-8a78edcdae1c",
        "id": 11706,
        "name": "Chandler Golf Course",
        "slug": "chandler-golf-course",
        "city": "Chandler",
        "province": "Oklahoma",
        "country": "United States",
        "address": "Route 2",
        "phone": "(405) 258-3068",
        "website": "",
        "postcode": "74834",
        "defaultAffiliationTypeId": 47646,
        "location": {
          "lat": 35.708878,
          "lon": -96.880815
        },
        "courses": [
          {
            "id": 13418,
            "name": "Chandler",
            "holes": 9,
            "uuid": "36cd5d5d-2d41-4f0e-afbc-90995b0e9690"
          }
        ]
      },
      "datesChecked": [
        "2026-02-18",
        "2026-02-21",
        "2026-02-28"
      ],
      "teeTimes": [
        0,
        0,
        0
      ]
    }
  ],
  "state": "OK",
  "timestamp": "2026-02-16T22:50:31-07:00",
  "totalInput": 32,
  "validationDates": [
    "2026-02-18",
    "2026-02-21",
    "2026-02-28"
  ],
  "wrongState": 1
}