{
  "confirmed": 6,
  "elapsed": "2m37.891668042s",
  "listedOnly": 25,
  "misses": 22,
  "platform": "chronogolf",
  "results": [
    {
      "input": "Stevens Park Golf Course",
      "city": "Dallas",
      "slug": "stevens-park-golf-course",
      "slugSource": "name+state",
      "status": "listed_only",
      "club": {
        "uuid": "1b54012b-ec49-45a8-a1bc-8bfa7ba631e4",
        "id": 13992,
        "name": "Stevens Park Golf Course",
        "slug": "stevens-park-golf-course",
        "city": "Dallas",
        "province": "Texas",
        "country": "United States",
        "address": "1005 N Montclair Ave",
        "phone": "(214) 670-7506",
        "website": "http://www.stevensparkgolf.com",
        "postcode": "75208",
        "defaultAffiliationTypeId": 56790,
        "location": {
          "lat": 32.754877,
          "lon": -96.846426
        },
        "courses": [
          {
            "id": 16051,
            "name": "Stevens Park",
            "holes": 18,
            "uuid": "26dcaae7-9e3b-4ce8-8402-cbdab8352a39"
          }
        ]
      },
      "datesChecked": [
        "2026-02-18",
        "2026-02-14",
        "2026-02-21"
      ],
      "teeTimes": [
        0,
        0,
        0
      ]
    },
    {
      "input": "Cedar Crest Golf Course",
      "city": "Dallas",
      "slug": "cedar-crest-golf-course",
      "slugSource": "name",
      "status": "wrong_state",
      "club": {
        "uuid": "cf46a001-77d9-4733-8676-3b53e7941d0f",
        "id": 13169,
        "name": "Cedar Crest Golf Course",
        "slug": "cedar-crest-golf-course",
        "city": "Murfreesboro",
        "province": "Tennessee",
        "country": "United States",
        "address": "7972 Mona Road",
        "phone": "(615) 849-7837",
        "website": "http://www.cedarcrestgolfclub.net",
        "postcode": "37129",
        "defaultAffiliationTypeId": 53498,
        "location": {
          "lat": 36.001147,
          "lon": -86.417246
        },
        "courses": [
          {
            "id": 15094,
            "name": "Cedar Crest",
            "holes": 18,
            "uuid": "64e117fc-2cfd-4083-828e-c92d5723bcb5"
          }
        ]
      }
    },
    {
      "input": "Keeton Park Golf Course",
      "city": "Dallas",
      "slug": "keeton-park-golf-course",
      "slugSource": "name+state",
      "status": "listed_only",
      "club": {
        "uuid": "96010cbf-82c8-4413-a4ff-03f6119d4916",
        "id": 13709,
        "name": "Keeton Park Golf Course",
        "slug": "keeton-park-golf-course",
        "city": "Dallas",
        "province": "Texas",
        "country": "United States",
        "address": "2323 N Jim Miller Rd",
        "phone": "(214) 670-8784",
        "website": "http://www.keetonpark.com",
        "postcode": "75227",
        "defaultAffiliationTypeId": 55658,
        "location": {
          "lat": 32.752532,
          "lon": -96.701456
        },
        "courses": [
          {
            "id": 15719,
            "name": "Keeton Park",
            "holes": 18,
            "uuid": "f047602a-087e-4bfb-9d1c-3ba2d14c9739"
          }
        ]
      },
      "datesChecked": [
        "2026-02-18",
        "2026-02-14",
        "2026-02-21"
      ],
      "teeTimes": [
        0,
        0,
        0
      ]
    },
    {
      "input": "Luna Vista Golf Course",
      "city": "Dallas",
      "slug": "",
      "slugSource": "",
      "status": "miss"
    },
    {
      "input": "Tenison Park Golf Club - Glen",
      "city": "Dallas",
      "slug": "",
      "slugSource": "",
      "status": "miss"
    },
    {
      "input": "Tenison Park Golf Club - Highlands",
      "city": "Dallas",
      "slug": "",
      "slugSource": "",
      "status": "miss"
    },
    {
      "input": "Meadowbrook Golf Course",
      "city": "Fort Worth",
      "slug": "meadowbrook-golf-course-texas",
      "slugSource": "name+state",
      "status": "listed_only",
      "club": {
        "uuid": "20d35d30-590b-421f-9947-253d14b280c7",
        "id": 13784,
        "name": "Meadowbrook Golf Course",
        "slug": "meadowbrook-golf-course-texas",
        "city": "Arlington",
        "province": "Texas",
        "country": "United States",
        "address": "1300 E Dugan St",
        "phone": "(817) 275-0221",
        "website": "http://www.golfmeadowbrook.com",
        "postcode": "76010",
        "defaultAffiliationTypeId": 55958,
        "location": {
          "lat": 32.751728,
          "lon": -97.243384
        },
        "courses": [
          {
            "id": 15800,
            "name": "Arlington ",
            "holes": 9,
            "uuid": "f170f802-4bc4-4a41-87a7-b7dec21a3ce2"
          }
        ]
      },
      "datesChecked": [
        "2026-02-18",
        "2026-02-14",
        "2026-02-21"
      ],
      "teeTimes": [
        0,
        0,
        0
      ]
    },
    {
      "input": "Pecan Valley Golf Course - River",
      "city": "Fort Worth",
      "slug": "",
      "slugSource": "",
      "status": "miss"
    },
    {
      "input": "Pecan Valley Golf Course - Hills",
      "city": "Fort Worth",
      "slug": "",
      "slugSource": "",
      "status": "miss"
    },
    {
      "input": "Rockwood Park Golf Course",
      "city": "Fort Worth",
      "slug": "rockwood-park-golf-course",
      "slugSource": "name",
      "status": "wrong_state",
      "club": {
        "uuid": "67640d45-0db1-4887-84fc-7ef6486862d5",
        "id": 832,
        "name": "Rockwood Park Golf Course ",
        "slug": "rockwood-park-golf-course",
        "city": "St. John",
        "province": "New Brunswick",
        "country": "Canada",
        "address": "1255 Sandy Point Rd",
        "phone": "(506) 634-0090",
        "website": "http://www.rockwoodparkgolf.com",
        "postcode": "E2K 5E2",
        "defaultAffiliationTypeId": 4045,
        "location": {
          "lat": 45.31175,
          "lon": -66.07688
        },
        "courses": [
          {
            "id": 826,
            "name": "Rockwood Park",
            "holes": 18,
            "uuid": "37b77ad6-fade-4575-9c28-574e4ee8b413"
          }
        ]
      }
    },
    {
      "input": "Fields Ranch - East",
      "city": "Frisco",
      "slug": "",
      "slugSource": "",
      "status": "miss"
    },
    {
      "input": "Fields Ranch - West",
      "city": "Frisco",
      "slug": "",
      "slugSource": "",
      "status": "miss"
    },
    {
      "input": "Cowboys Golf Club",
      "city": "Grapevine",
      "slug": "cowboys-golf-club",
      "slugSource": "name+state",
      "status": "listed_only",
      "club": {
        "uuid": "28c45b94-1a72-4c22-a066-0281efb41715",
        "id": 13541,
        "name": "Cowboys Golf Club",
        "slug": "cowboys-golf-club",
        "city": "Grapevine",
        "province": "Texas",
        "country": "United States",
        "address": "1600 Fairway Dr",
        "phone": "(817) 481-7277",
        "website": "http://www.cowboysgolfclub.com",
        "postcode": "76051",
        "defaultAffiliationTypeId": 54986,
        "location": {
          "lat": 32.952692,
          "lon": -97.0562432
        },
        "courses": [
          {
            "id": 15512,
            "name": "Cowboys",
            "holes": 18,
            "uuid": "07a03c56-8264-47bf-ac4f-5d27d5aaa8c3"
          }
        ]
      },
      "datesChecked": [
        "2026-02-18",
        "2026-02-14",
        "2026-02-21"
      ],
      "teeTimes": [
        0,
        0,
        0
      ]
    },
    {
      "input": "The Tribute Golf Club",
      "city": "The Colony",
      "slug": "",
      "slugSource": "",
      "status": "miss"
    },
    {
      "input": "Old American Golf Club",
      "city": "The Colony",
      "slug": "",
      "slugSource": "",
      "status": "miss"
    },
    {
      "input": "Sherrill Park Golf Course",
      "city": "Richardson",
      "slug": "",
      "slugSource": "",
      "status": "miss"
    },
    {
      "input": "Pecan Hollow Golf Course",
      "city": "Plano",
      "slug": "pecan-hollow-golf-course",
      "slugSource": "name+state",
      "status": "listed_only",
      "club": {
        "uuid": "6f5a6e9e-b566-4b97-8919-ad45f4fb45ad",
        "id": 13861,
        "name": "Pecan Hollow Golf Course",
        "slug": "pecan-hollow-golf-course",
        "city": "Plano",
        "province": "Texas",
        "country": "United States",
        "address": "4501 E 14th St",
        "phone": "(972) 941-7600",
        "website": "http://www.pecanhollowgc.com",
        "postcode": "75074",
        "defaultAffiliationTypeId": 56266,
        "location": {
          "lat": 33.013097,
          "lon": -96.649346
        },
        "courses": [
          {
            "id": 15895,
            "name": "Pecan Hollow",
            "holes": 18,
            "uuid": "97244284-b426-4f77-b2d2-494b336c5a99"
          }
        ]
      },
      "datesChecked": [
        "2026-02-18",
        "2026-02-14",
        "2026-02-21"
      ],
      "teeTimes": [
        0,
        0,
        0
      ]
    },
    {
      "input": "The Courses at Watters Creek",
      "city": "Plano",
      "slug": "",
      "slugSource": "",
      "status": "miss"
    },
    {
      "input": "Heritage Ranch Golf and Country Club",
      "city": "McKinney",
      "slug": "heritage-ranch-golf-country-club",
      "slugSource": "no-and+state",
      "status": "listed_only",
      "club": {
        "uuid": "a3aa3d54-55b7-43f4-89fd-cb56925e030f",
        "id": 13659,
        "name": "Heritage Ranch Golf \u0026 Country Club",
        "slug": "heritage-ranch-golf-country-club",
        "city": "Fairview",
        "province": "Texas",
        "country": "United States",
        "address": "465 Scenic Ranch Circle",
        "phone": "(972) 549-0276",
        "website": "http://www.heritageranchgolf.com",
        "postcode": "75069",
        "defaultAffiliationTypeId": 55458,
        "location": {
          "lat": 33.138195,
          "lon": -96.59264
        },
        "courses": [
          {
            "id": 15656,
            "name": "Heritage Ranch",
            "holes": 18,
            "uuid": "873df87c-b1e3-4fb0-9172-04150d087c8d"
          }
        ]
      },
      "datesChecked": [
        "2026-02-18",
        "2026-02-14",
        "2026-02-21"
      ],
      "teeTimes": [
        0,
        0,
        0
      ]
    },
    {
      "input": "Chase Oaks Golf Club",
      "city": "Plano",
      "slug": "chase-oaks-golf-club",
      "slugSource": "name+state",
      "status": "listed_only",
      "club": {
        "uuid": "9bad25fc-1def-4f2d-8fa9-eae6661ae175",
        "id": 13507,
        "name": "Chase Oaks Golf Club",
        "slug": "chase-oaks-golf-club",
        "city": "Plano",
        "province": "Texas",
        "country": "United States",
        "address": "7201 Chase Oaks Blvd",
        "phone": "(972) 517-7777",
        "website": "http://www.chaseoaks.com",
        "postcode": "75025",
        "defaultAffiliationTypeId": 54850,
        "location": {
          "lat": 33.073003,
          "lon": -96.69191
        },
        "courses": [
          {
            "id": 15476,
            "name": "Sawtooth",
            "holes": 9,
            "uuid": "4854b6ab-959d-4a66-a257-4fe400bb9102"
          },
          {
            "id": 15475,
            "name": "Blackjack",
            "holes": 18,
            "uuid": "46c8f399-7fc5-40cd-b8ca-7335ab604d26"
          }
        ]
      },
      "datesChecked": [
        "2026-02-18",
        "2026-02-14",
        "2026-02-21"
      ],
      "teeTimes": [
        0,
        0,
        0
      ]
    },
    {
      "input": "Stonebridge Ranch Country Club",
      "city": "McKinney",
      "slug": "stonebridge-ranch",
      "slugSource": "core",
      "status": "listed_only",
      "club": {
        "uuid": "38ef455f-1250-4904-9e50-157e0c49e84a",
        "id": 13994,
        "name": "Stonebridge Ranch",
        "slug": "stonebridge-ranch",
        "city": "McKinney",
        "province": "Texas",
        "country": "United States",
        "address": "5901 Glen Oaks Dr",
        "phone": "(972) 529-5990",
        "website": "http://www.stonebridgeranchcountryclub.com",
        "postcode": "75070",
        "defaultAffiliationTypeId": 56798,
        "location": {
          "lat": 33.186963,
          "lon": -96.688184
        },
        "courses": [
          {
            "id": 16055,
            "name": "Saddleback/Chisholm",
            "holes": 18,
            "uuid": "d82b2800-1e7c-4fe0-a625-658d7fa3df06"
          },
          {
            "id": 16053,
            "name": "Chisholm/Cimarron",
            "holes": 18,
            "uuid": "661914b4-6ae7-477c-822c-314cb2d5822f"
          },
          {
            "id": 16054,
            "name": "Cimarron/Saddleback",
            "holes": 18,
            "uuid": "a700bf29-aed8-488a-ba95-01425840b526"
          }
        ]
      },
      "datesChecked": [
        "2026-02-18",
        "2026-02-14",
        "2026-02-21"
      ],
      "teeTimes": [
        0,
        0,
        0
      ]
    },
    {
      "input": "Frisco Lakes Golf Club",
      "city": "Frisco",
      "slug": "frisco-lakes-golf-club",
      "slugSource": "name",
      "status": "confirmed",
      "club": {
        "uuid": "6202ad1c-d4be-4443-815d-d5d30378f7ed",
        "id": 18925,
        "name": "Frisco Lakes Golf Club",
        "slug": "frisco-lakes-golf-club",
        "city": "Frisco",
        "province": "Texas",
        "country": "United States",
        "address": "7170 Anthem Drive",
        "phone": "(972) 292-3089",
        "website": "https://www.friscolakesgc.com",
        "postcode": "75034",
        "defaultAffiliationTypeId": 111218,
        "location": {
          "lat": 33.13897,
          "lon": -96.90839
        },
        "courses": [
          {
            "id": 23062,
            "name": "Frisco Lakes' Championship",
            "holes": 18,
            "uuid": "439f9a99-3c0e-4f6d-b7d8-340c9fb928c0"
          }
        ]
      },
      "datesChecked": [
        "2026-02-18",
        "2026-02-14",
        "2026-02-21"
      ],
      "teeTimes": [
        24,
        0,
        24
      ]
    },
    {
      "input": "Eldorado Country Club",
      "city": "McKinney",
      "slug": "eldorado-country-club",
      "slugSource": "name",
      "status": "wrong_state",
      "club": {
        "uuid": "4bf0b951-6964-4255-a270-be482aa5890d",
        "id": 2658,
        "name": "Eldorado Country Club",
        "slug": "eldorado-country-club",
        "city": "Indian Wells",
        "province": "California",
        "country": "United States",
        "address": "46000 Fairway Dr",
        "phone": "(760) 346-8081",
        "website": "http://www.eldoradogolfclub.org",
        "postcode": "92210",
        "defaultAffiliationTypeId": 11454,
        "location": {
          "lat": 33.71435,
          "lon": -116.3432425
        },
        "courses": [
          {
            "id": 3045,
            "name": "Eldorado",
            "holes": 18,
            "uuid": "81b70f70-a03b-43f8-8da0-6d827bf73011"
          }
        ]
      }
    },
    {
      "input": "Indian Creek Golf Club - Creek",
      "city": "Carrollton",
      "slug": "",
      "slugSource": "",
      "status": "miss"
    },
    {
      "input": "Indian Creek Golf Club - Lake",
      "city": "Carrollton",
      "slug": "",
      "slugSource": "",
      "status": "miss"
    },
    {
      "input": "Irving Golf Club",
      "city": "Irving",
      "slug": "",
      "slugSource": "",
      "status": "miss"
    },
    {
      "input": "Grapevine Golf Course",
      "city": "Grapevine",
      "slug": "grapevine-golf-club",
      "slugSource": "swap-golf-club",
      "status": "listed_only",
      "club": {
        "uuid": "b1e73d3a-466f-46b6-bfb1-0427c9c91949",
        "id": 13637,
        "name": "Grapevine Golf Club",
        "slug": "grapevine-golf-club",
        "city": "Grapevine",
        "province": "Texas",
        "country": "United States",
        "address": "3800 Fairway Dr",
        "phone": "(817) 410-3377",
        "website": "http://www.ci.grapevine.tx.us",
        "postcode": "76051",
        "defaultAffiliationTypeId": 55370,
        "location": {
          "lat": 32.95498,
          "lon": -97.055168
        },
        "courses": [
          {
            "id": 15623,
            "name": "Mockingbird/Bluebonnet",
            "holes": 18,
            "uuid": "6309b8bf-e354-4624-bc2f-22e5df2c785c"
          },
          {
            "id": 15626,
            "name": "Pecan/Mockingbird",
            "holes": 18,
            "uuid": "c8634012-ce49-4dee-bf0f-1586ed27f105"
          },
          {
            "id": 15625,
            "name": "Pecan/Bluebonnet",
            "holes": 18,
            "uuid": "c39d4a64-145c-4800-ac32-0de011fd3c35"
          },
          {
            "id": 15624,
            "name": "Mockingbird/Pecan",
            "holes": 18,
            "uuid": "72f817bb-5d15-4c46-87a3-e2decc040fcf"
          },
          {
            "id": 15622,
            "name": "Mockingbird 9",
            "holes": 9,
            "uuid": "e0cc4a60-cbdf-4a4a-aaf5-7990caa42652"
          }
        ]
      },
      "datesChecked": [
        "2026-02-18",
        "2026-02-14",
        "2026-02-21"
      ],
      "teeTimes": [
        0,
        0,
        0
      ]
    },
    {
      "input": "Bear Creek Golf Club - East",
      "city": "Dallas",
      "slug": "",
      "slugSource": "",
      "status": "miss"
    },
    {
      "input": "Bear Creek Golf Club - West",
      "city": "Dallas",
      "slug": "",
      "slugSource": "",
      "status": "miss"
    },
    {
      "input": "Hackberry Creek Country Club",
      "city": "Irving",
      "slug": "hackberry-creek-country-club",
      "slugSource": "name+state",
      "status": "listed_only",
      "club": {
        "uuid": "7dd4a357-c334-447a-a5bc-aa4a753dcc00",
        "id": 13648,
        "name": "Hackberry Creek Country Club",
        "slug": "hackberry-creek-country-club",
        "city": "Irving",
        "province": "Texas",
        "country": "United States",
        "address": "1901 West Royal Lane",
        "phone": "(972) 869-9364",
        "website": "http://www.hackberrycreekcc.com",
        "postcode": "75063",
        "defaultAffiliationTypeId": 55414,
        "location": {
          "lat": 32.901428,
          "lon": -96.972593
        },
        "courses": [
          {
            "id": 15640,
            "name": "Hackberry Creek",
            "holes": 18,
            "uuid": "a833469b-60b7-4ed9-b7f1-c089501c0a20"
          }
        ]
      },
      "datesChecked": [
        "2026-02-18",
        "2026-02-14",
        "2026-02-21"
      ],
      "teeTimes": [
        0,
        0,
        0
      ]
    },
    {
      "input": "Riverside Golf Club",
      "city": "Grand Prairie",
      "slug": "riverside-golf-club-texas",
      "slugSource": "name+state",
      "status": "listed_only",
      "club": {
        "uuid": "2b59f0c0-2d8b-4f61-b73b-caff9b98fdc1",
        "id": 13932,
        "name": "Riverside Golf Club",
        "slug": "riverside-golf-club-texas",
        "city": "Grand Prairie",
        "province": "Texas",
        "country": "United States",
        "address": "3000 Riverside Pkwy",
        "phone": "(817) 640-7800",
        "website": "http://www.riverside-golfclub.com",
        "postcode": "75050",
        "defaultAffiliationTypeId": 56550,
        "location": {
          "lat": 32.8005946,
          "lon": -97.0576764
        },
        "courses": [
          {
            "id": 15980,
            "name": "Riverside",
            "holes": 18,
            "uuid": "9650f5a3-7d72-43b4-8049-b3c647be9266"
          }
        ]
      },
      "datesChecked": [
        "2026-02-18",
        "2026-02-14",
        "2026-02-21"
      ],
      "teeTimes": [
        0,
        0,
        0
      ]
    },
    {
      "input": "Tierra Verde Golf Club",
      "city": "Arlington",
      "slug": "tierra-verde-golf-club",
      "slugSource": "name+state",
      "status": "listed_only",
      "club": {
        "uuid": "97c78a54-1b71-47d1-bea2-e4a6c8f21c98",
        "id": 14073,
        "name": "Tierra Verde Golf Club",
        "slug": "tierra-verde-golf-club",
        "city": "Arlington",
        "province": "Texas",
        "country": "United States",
        "address": "7005 Golf Club Dr",
        "phone": "(817) 572-1300",
        "website": "http://www.arlingtongolf.com",
        "postcode": "76001",
        "defaultAffiliationTypeId": 57114,
        "location": {
          "lat": 32.631556,
          "lon": -97.181524
        },
        "courses": [
          {
            "id": 16150,
            "name": "Tierra Verde",
            "holes": 18,
            "uuid": "06e435fd-4567-4e12-b804-9d6f11967d93"
          }
        ]
      },
      "datesChecked": [
        "2026-02-18",
        "2026-02-14",
        "2026-02-21"
      ],
      "teeTimes": [
        0,
        0,
        0
      ]
    },
    {
      "input": "Lake Arlington Golf Course",
      "city": "Arlington",
      "slug": "lake-arlington-golf",
      "slugSource": "core+golf",
      "status": "listed_only",
      "club": {
        "uuid": "4cc86860-8205-4cd9-b8ac-07bef428932e",
        "id": 13723,
        "name": "Lake Arlington Golf",
        "slug": "lake-arlington-golf",
        "city": "Arlington",
        "province": "Texas",
        "country": "United States",
        "address": "1516 W Green Oaks Blvd",
        "phone": "(817) 451-6101",
        "website": "http://www.arlingtongolf.com",
        "postcode": "76013",
        "defaultAffiliationTypeId": 55714,
        "location": {
          "lat": 32.721941,
          "lon": -97.182021
        },
        "courses": [
          {
            "id": 15734,
            "name": "Lake Arlington Golf",
            "holes": 18,
            "uuid": "a27c6292-cbfd-4a98-b7e3-3f8724056c2c"
          }
        ]
      },
      "datesChecked": [
        "2026-02-18",
        "2026-02-14",
        "2026-02-21"
      ],
      "teeTimes": [
        0,
        0,
        0
      ]
    },
    {
      "input": "Tangle Ridge Golf Club",
      "city": "Grand Prairie",
      "slug": "tangle-ridge-golf-club",
      "slugSource": "name+state",
      "status": "listed_only",
      "club": {
        "uuid": "b1249376-05b2-4834-ae7f-2cb7a986c5c6",
        "id": 14011,
        "name": "Tangle Ridge Golf Club",
        "slug": "tangle-ridge-golf-club",
        "city": "Grand Prairie",
        "province": "Texas",
        "country": "United States",
        "address": "818 Tangle Ridge Dr",
        "phone": "(972) 299-6837",
        "website": "http://www.tangleridge.com",
        "postcode": "75052",
        "defaultAffiliationTypeId": 56866,
        "location": {
          "lat": 32.55999,
          "lon": -97.023634
        },
        "courses": [
          {
            "id": 16076,
            "name": "Tangle Ridge",
            "holes": 18,
            "uuid": "62eb7065-51a5-47ab-87bb-0e107ec6870f"
          }
        ]
      },
      "datesChecked": [
        "2026-02-18",
        "2026-02-14",
        "2026-02-21"
      ],
      "teeTimes": [
        0,
        0,
        0
      ]
    },
    {
      "input": "Cedar Crest Golf Club",
      "city": "Cedar Hill",
      "slug": "cedar-crest-golf-course",
      "slugSource": "swap-golf-course",
      "status": "wrong_state",
      "club": {
        "uuid": "cf46a001-77d9-4733-8676-3b53e7941d0f",
        "id": 13169,
        "name": "Cedar Crest Golf Course",
        "slug": "cedar-crest-golf-course",
        "city": "Murfreesboro",
        "province": "Tennessee",
        "country": "United States",
        "address": "7972 Mona Road",
        "phone": "(615) 849-7837",
        "website": "http://www.cedarcrestgolfclub.net",
        "postcode": "37129",
        "defaultAffiliationTypeId": 53498,
        "location": {
          "lat": 36.001147,
          "lon": -86.417246
        },
        "courses": [
          {
            "id": 15094,
            "name": "Cedar Crest",
            "holes": 18,
            "uuid": "64e117fc-2cfd-4083-828e-c92d5723bcb5"
          }
        ]
      }
    },
    {
      "input": "The Golf Club at Champions Circle",
      "city": "Fort Worth",
      "slug": "golf-club-at-champions-circle",
      "slugSource": "no-the",
      "status": "listed_only",
      "club": {
        "uuid": "2aa209d7-c795-467e-b0f6-ef32cd97c6b2",
        "id": 13627,
        "name": "Golf Club at Champions Circle",
        "slug": "golf-club-at-champions-circle",
        "city": "Fort Worth",
        "province": "Texas",
        "country": "United States",
        "address": "15801 Champions Circle",
        "phone": "(817) 497-2582",
        "website": "http://www.championscirclegolf.com",
        "postcode": "76177",
        "defaultAffiliationTypeId": 55330,
        "location": {
          "lat": 33.0209505,
          "lon": -97.2879751
        },
        "courses": [
          {
            "id": 15610,
            "name": "Course at Champions Circle",
            "holes": 18,
            "uuid": "aef3ff03-2fb8-48f5-a47a-8b3178ebb89d"
          }
        ]
      },
      "datesChecked": [
        "2026-02-18",
        "2026-02-14",
        "2026-02-21"
      ],
      "teeTimes": [
        0,
        0,
        0
      ]
    },
    {
      "input": "Waterchase Golf Club",
      "city": "Fort Worth",
      "slug": "waterchase-golf-club",
      "slugSource": "name+state",
      "status": "listed_only",
      "club": {
        "uuid": "fbdadd0d-9f76-4b35-8734-f75e12df3c68",
        "id": 14106,
        "name": "Waterchase Golf Club",
        "slug": "waterchase-golf-club",
        "city": "Fort Worth",
        "province": "Texas",
        "country": "United States",
        "address": "8951 Creek Run Rd",
        "phone": "(817) 861-4653",
        "website": "http://www.waterchasegc.com",
        "postcode": "76120",
        "defaultAffiliationTypeId": 57246,
        "location": {
          "lat": 32.764248,
          "lon": -97.15951
        },
        "courses": [
          {
            "id": 16190,
            "name": "Waterchase",
            "holes": 18,
            "uuid": "ffd7ac23-8bf4-4a3c-9812-1592164af852"
          }
        ]
      },
      "datesChecked": [
        "2026-02-18",
        "2026-02-14",
        "2026-02-21"
      ],
      "teeTimes": [
        0,
        0,
        0
      ]
    },
    {
      "input": "Sky Creek Ranch Golf Club",
      "city": "Keller",
      "slug": "sky-creek-ranch-golf-club",
      "slugSource": "name+state",
      "status": "confirmed",
      "club": {
        "uuid": "a8366f00-0dde-4055-a553-8cfe95ef277b",
        "id": 13976,
        "name": "Sky Creek Ranch Golf Club",
        "slug": "sky-creek-ranch-golf-club",
        "city": "Keller",
        "province": "Texas",
        "country": "United States",
        "address": "600 Promontory Dr",
        "phone": "(817) 498-1414",
        "website": "http://www.skycreekranch.com",
        "postcode": "76248",
        "defaultAffiliationTypeId": 56726,
        "location": {
          "lat": 32.9234043,
          "lon": -97.2094086
        },
        "courses": [
          {
            "id": 16032,
            "name": "Sky Creek Ranch",
            "holes": 18,
            "uuid": "09d47afb-6d67-475b-a575-315d04e40428"
          }
        ]
      },
      "datesChecked": [
        "2026-02-18",
        "2026-02-14",
        "2026-02-21"
      ],
      "teeTimes": [
        24,
        0,
        24
      ]
    },
    {
      "input": "Iron Horse Golf Course",
      "city": "North Richland Hills",
      "slug": "iron-horse-golf-course",
      "slugSource": "name+state",
      "status": "confirmed",
      "club": {
        "uuid": "c4e3f0a6-cae4-44f0-94f6-ea0fef15bcdb",
        "id": 13699,
        "name": "Iron Horse Golf Course",
        "slug": "iron-horse-golf-course",
        "city": "North Richland Hills",
        "province": "Texas",
        "country": "United States",
        "address": "6200 Skylark Cir",
        "phone": "(817) 485-6666",
        "website": "https://www.ironhorsetx.com",
        "postcode": "76180",
        "defaultAffiliationTypeId": 131653,
        "location": {
          "lat": 32.835229,
          "lon": -97.248432
        },
        "courses": [
          {
            "id": 15706,
            "name": "Iron Horse",
            "holes": 18,
            "uuid": "e20ec927-d61c-49b2-a5b4-48d4f261a5f8"
          }
        ]
      },
      "datesChecked": [
        "2026-02-18",
        "2026-02-14",
        "2026-02-21"
      ],
      "teeTimes": [
        12,
        0,
        18
      ]
    },
    {
      "input": "Texas Star Golf Course",
      "city": "Euless",
      "slug": "texas-star-golf-course",
      "slugSource": "name+state",
      "status": "listed_only",
      "club": {
        "uuid": "cf7f9df4-8845-4481-882d-956d932e6ac3",
        "id": 14023,
        "name": "Texas Star Golf Course",
        "slug": "texas-star-golf-course",
        "city": "Euless",
        "province": "Texas",
        "country": "United States",
        "address": "1400 Texas Star Pkwy",
        "phone": "(817) 685-7888",
        "website": "http://www.texasstargolf.com",
        "postcode": "76040",
        "defaultAffiliationTypeId": 56914,
        "location": {
          "lat": 32.819158,
          "lon": -97.114011
        },
        "courses": [
          {
            "id": 16091,
            "name": "Texas Star",
            "holes": 18,
            "uuid": "2d4c979c-5e5b-4b45-aecd-6d291cc92a66"
          }
        ]
      },
      "datesChecked": [
        "2026-02-18",
        "2026-02-14",
        "2026-02-21"
      ],
      "teeTimes": [
        0,
        0,
        0
      ]
    },
    {
      "input": "Fossil Creek Golf Club",
      "city": "Fort Worth",
      "slug": "",
      "slugSource": "",
      "status": "miss"
    },
    {
      "input": "Hawk's Creek Golf Club",
      "city": "Westworth Village",
      "slug": "hawks-creek-golf-club",
      "slugSource": "name+state",
      "status": "listed_only",
      "club": {
        "uuid": "5ec3a081-d3ea-47fc-8ad7-5254954425d5",
        "id": 13655,
        "name": "Hawks Creek Golf Club",
        "slug": "hawks-creek-golf-club",
        "city": "Fort Worth",
        "province": "Texas",
        "country": "United States",
        "address": "6520 White Settlement Rd",
        "phone": "(817) 738-8402",
        "website": "",
        "postcode": "76114",
        "defaultAffiliationTypeId": 55442,
        "location": {
          "lat": 32.760173,
          "lon": -97.432752
        },
        "courses": [
          {
            "id": 15647,
            "name": "Hawks Creek",
            "holes": 18,
            "uuid": "b1fc73dc-982b-4094-b10f-2ab2239f6d29"
          }
        ]
      },
      "datesChecked": [
        "2026-02-18",
        "2026-02-14",
        "2026-02-21"
      ],
      "teeTimes": [
        0,
        0,
        0
      ]
    },
    {
      "input": "Firewheel Golf Park",
      "city": "Garland",
      "slug": "",
      "slugSource": "",
      "status": "miss"
    },
    {
      "input": "Duck Creek Golf Club",
      "city": "Garland",
      "slug": "duck-creek-golf-course",
      "slugSource": "swap-golf-course",
      "status": "wrong_state",
      "club": {
        "uuid": "054d5295-ae09-46ec-9729-4f9ba4146ddc",
        "id": 5162,
        "name": "Duck Creek Golf Course",
        "slug": "duck-creek-golf-course",
        "city": "Davenport",
        "province": "Iowa",
        "country": "United States",
        "address": "3000 E Locust",
        "phone": "(319) 326-7824",
        "website": "http://www.golfdavenport.com",
        "postcode": "52803",
        "defaultAffiliationTypeId": 21470,
        "location": {
          "lat": 41.538478,
          "lon": -90.528381
        },
        "courses": [
          {
            "id": 6070,
            "name": "Duck Creek",
            "holes": 18,
            "uuid": "54b5b4ee-dec3-47c8-9237-c140c145798c"
          }
        ]
      }
    },
    {
      "input": "Mesquite Golf Course",
      "city": "Mesquite",
      "slug": "",
      "slugSource": "",
      "status": "miss"
    },
    {
      "input": "The Golf Club of Dallas",
      "city": "Dallas",
      "slug": "",
      "slugSource": "",
      "status": "miss"
    },
    {
      "input": "Buffalo Creek Golf Club",
      "city": "Rockwall",
      "slug": "buffalo-creek-golf-club-texas",
      "slugSource": "name+state",
      "status": "confirmed",
      "club": {
        "uuid": "48ff26f3-d007-47d7-94ef-8a30bf03de1d",
        "id": 13484,
        "name": "Buffalo Creek Golf Club",
        "slug": "buffalo-creek-golf-club-texas",
        "city": "Rockwall",
        "province": "Texas",
        "country": "United States",
        "address": "624 Country Club Dr",
        "phone": "(972) 771-4003",
        "website": "https://www.buffalocreekgc.com/",
        "postcode": "75032",
        "defaultAffiliationTypeId": 96456,
        "location": {
          "lat": 32.870391,
          "lon": -96.46538
        },
        "courses": [
          {
            "id": 15451,
            "name": "Buffalo Creek",
            "holes": 18,
            "uuid": "3efe4158-cd82-4e9a-82a0-19ceb157c76b"
          }
        ]
      },
      "datesChecked": [
        "2026-02-18",
        "2026-02-14",
        "2026-02-21"
      ],
      "teeTimes": [
        24,
        0,
        24
      ]
    },
    {
      "input": "Waterview Golf Club",
      "city": "Rowlett",
      "slug": "waterview-golf-club",
      "slugSource": "name+state",
      "status": "listed_only",
      "club": {
        "uuid": "579f13f9-9223-4af5-947a-b82c67481be9",
        "id": 14107,
        "name": "Waterview Golf Club",
        "slug": "waterview-golf-club",
        "city": "Rowlett",
        "province": "Texas",
        "country": "United States",
        "address": "9509 Waterview Pkwy",
        "phone": "(972) 463-6310",
        "website": "http://www.waterviewdfw.com",
        "postcode": "75089",
        "defaultAffiliationTypeId": 57250,
        "location": {
          "lat": 32.950161,
          "lon": -96.535289
        },
        "courses": [
          {
            "id": 16191,
            "name": "Waterview",
            "holes": 18,
            "uuid": "09a5367d-da6e-48ce-ad78-aa1ab5390e22"
          }
        ]
      },
      "datesChecked": [
        "2026-02-18",
        "2026-02-14",
        "2026-02-21"
      ],
      "teeTimes": [
        0,
        0,
        0
      ]
    },
    {
      "input": "Mansfield National Golf Club",
      "city": "Mansfield",
      "slug": "mansfield-national-golf-club",
      "slugSource": "name+state",
      "status": "listed_only",
      "club": {
        "uuid": "0c6654a3-99fe-420f-ab50-3ebf2a9ec46a",
        "id": 13771,
        "name": "Mansfield National Golf Club",
        "slug": "mansfield-national-golf-club",
        "city": "Mansfield",
        "province": "Texas",
        "country": "United States",
        "address": "3750 National Pkwy",
        "phone": "(817) 477-3366",
        "website": "http://www.mansfieldnational.com",
        "postcode": "76063",
        "defaultAffiliationTypeId": 55906,
        "location": {
          "lat": 32.5570481,
          "lon": -97.0800705
        },
        "courses": [
          {
            "id": 15786,
            "name": "Mansfield National",
            "holes": 18,
            "uuid": "89fa5037-9e9f-42a1-8f25-f277d8bb85d2"
          }
        ]
      },
      "datesChecked": [
        "2026-02-18",
        "2026-02-14",
        "2026-02-21"
      ],
      "teeTimes": [
        0,
        0,
        0
      ]
    },
    {
      "input": "Midlothian Golf Club",
      "city": "Midlothian",
      "slug": "midlothian-country-club",
      "slugSource": "swap-country-club",
      "status": "wrong_state",
      "club": {
        "uuid": "41ab5f08-06e7-4a21-b3a4-7970ab472fc8",
        "id": 5873,
        "name": "Midlothian Country Club",
        "slug": "midlothian-country-club",
        "city": "Midlothian",
        "province": "Illinois",
        "country": "United States",
        "address": "147th \u0026 LaVergne",
        "phone": "(708) 388-0596",
        "website": "http://www.midlothiancc.org",
        "postcode": "60445",
        "defaultAffiliationTypeId": 24314,
        "location": {
          "lat": 41.623723,
          "lon": -87.742109
        },
        "courses": [
          {
            "id": 6827,
            "name": "Midlothian",
            "holes": 18,
            "uuid": "d2952bac-d6fc-4552-a99b-aacb898e2864"
          }
        ]
      }
    },
    {
      "input": "Waxahachie Country Club",
      "city": "Waxahachie",
      "slug": "waxahachie-country-club",
      "slugSource": "name+state",
      "status": "listed_only",
      "club": {
        "uuid": "3173f11b-a42e-4db4-8c0f-d7ec83fc59be",
        "id": 14109,
        "name": "Waxahachie Country Club",
        "slug": "waxahachie-country-club",
        "city": "Waxahachie",
        "province": "Texas",
        "country": "United States",
        "address": "1920 W Hwy 287 Business",
        "phone": "(972) 937-3521",
        "website": "",
        "postcode": "75165",
        "defaultAffiliationTypeId": 57258,
        "location": {
          "lat": 32.4307819,
          "lon": -96.8714678
        },
        "courses": [
          {
            "id": 16193,
            "name": "Waxahachie",
            "holes": 18,
            "uuid": "6246ea0d-2f77-496a-b895-1235e922a797"
          }
        ]
      },
      "datesChecked": [
        "2026-02-18",
        "2026-02-14",
        "2026-02-21"
      ],
      "teeTimes": [
        0,
        0,
        0
      ]
    },
    {
      "input": "Teal Bend Golf Club",
      "city": "Mansfield",
      "slug": "teal-bend-golf-club",
      "slugSource": "name",
      "status": "wrong_state",
      "club": {
        "uuid": "aaa33829-3f00-46e0-9aca-637dde3adcd9",
        "id": 3131,
        "name": "Teal Bend Golf Club",
        "slug": "teal-bend-golf-club",
        "city": "Sacramento",
        "province": "California",
        "country": "United States",
        "address": "7200 Garden Hwy",
        "phone": "(916) 922-5209",
        "website": "http://www.tealbendgolf.com",
        "postcode": "95837",
        "defaultAffiliationTypeId": 13346,
        "location": {
          "lat": 38.715893,
          "lon": -121.606416
        },
        "courses": [
          {
            "id": 3540,
            "name": "Teal Bend",
            "holes": 18,
            "uuid": "de5900f1-fa8d-47fd-bc07-98c6f5502604"
          }
        ]
      }
    },
    {
      "input": "Robson Ranch Golf Club",
      "city": "Denton",
      "slug": "robson-ranch",
      "slugSource": "core",
      "status": "listed_only",
      "club": {
        "uuid": "dc6badf1-8da3-4a45-8980-fd1a0f975c66",
        "id": 13938,
        "name": "Robson Ranch ",
        "slug": "robson-ranch",
        "city": "Denton",
        "province": "Texas",
        "country": "United States",
        "address": "9450 E Robson Blvd",
        "phone": "(940) 246-1001",
        "website": "http://www.robson.com",
        "postcode": "76207",
        "defaultAffiliationTypeId": 56574,
        "location": {
          "lat": 33.1359574,
          "lon": -97.2388451
        },
        "courses": [
          {
            "id": 15989,
            "name": "Wildhorse/Mustang",
            "holes": 18,
            "uuid": "89d7e6b0-d1a6-4508-825b-bb928756cb06"
          }
        ]
      },
      "datesChecked": [
        "2026-02-18",
        "2026-02-14",
        "2026-02-21"
      ],
      "teeTimes": [
        0,
        0,
        0
      ]
    },
    {
      "input": "Tour 18 Golf Course",
      "city": "Flower Mound",
      "slug": "",
      "slugSource": "",
      "status": "miss"
    },
    {
      "input": "Lake Park Golf Course",
      "city": "Lewisville",
      "slug": "lake-park-golf-club",
      "slugSource": "swap-golf-club",
      "status": "listed_only",
      "club": {
        "uuid": "8139c7f3-2d36-4bda-ad33-388626e2ff37",
        "id": 13726,
        "name": "Lake Park Golf Club",
        "slug": "lake-park-golf-club",
        "city": "Lewisville",
        "province": "Texas",
        "country": "United States",
        "address": "6 Lake Park Rd",
        "phone": "(972) 219-5661",
        "website": "http://www.metroplexweb.com/lakepark",
        "postcode": "75057",
        "defaultAffiliationTypeId": 55726,
        "location": {
          "lat": 33.071745,
          "lon": -97.009246
        },
        "courses": [
          {
            "id": 15737,
            "name": "Regulation",
            "holes": 18,
            "uuid": "bd9219de-0987-499a-a843-752952008769"
          }
        ]
      },
      "datesChecked": [
        "2026-02-18",
        "2026-02-14",
        "2026-02-21"
      ],
      "teeTimes": [
        0,
        0,
        0
      ]
    },
    {
      "input": "Bridlewood Golf Club",
      "city": "Flower Mound",
      "slug": "bridlewood-golf-club",
      "slugSource": "name+state",
      "status": "confirmed",
      "club": {
        "uuid": "8ce58a0f-1c00-4a43-9b25-574c704a7a2a",
        "id": 13475,
        "name": "Bridlewood Golf Club",
        "slug": "bridlewood-golf-club",
        "city": "Flower Mound",
        "province": "Texas",
        "country": "United States",
        "address": "4000 W Windsor Dr",
        "phone": "(972) 355-4800",
        "website": "http://www.bridlewoodgolf.com",
        "postcode": "75028",
        "defaultAffiliationTypeId": 54722,
        "location": {
          "lat": 33.0486455,
          "lon": -97.0903965
        },
        "courses": [
          {
            "id": 15440,
            "name": "Bridlewood",
            "holes": 18,
            "uuid": "a4993a59-a654-42d9-a0e9-6b3dcd6bc72a"
          }
        ]
      },
      "datesChecked": [
        "2026-02-18",
        "2026-02-14",
        "2026-02-21"
      ],
      "teeTimes": [
        24,
        0,
        24
      ]
    },
    {
      "input": "The Golf Club at Castle Hills",
      "city": "Lewisville",
      "slug": "golf-club-at-castle-hills",
      "slugSource": "no-the",
      "status": "listed_only",
      "club": {
        "uuid": "bb007ddf-5618-40c3-a681-973b9f5a2ec9",
        "id": 13626,
        "name": "Golf Club at Castle Hills",
        "slug": "golf-club-at-castle-hills",
        "city": "Lewisville",
        "province": "Texas",
        "country": "United States",
        "address": "699 Lady of the Lake Blvd",
        "phone": "(972) 899-7400",
        "website": "http://www.thegolfclubch.com",
        "postcode": "75056",
        "defaultAffiliationTypeId": 55326,
        "location": {
          "lat": 33.0387552,
          "lon": -96.9004465
        },
        "courses": [
          {
            "id": 15609,
            "name": "Course at Castle Hills",
            "holes": 18,
            "uuid": "ac754f3d-6f7d-40da-b341-2cf4d6cc088f"
          }
        ]
      },
      "datesChecked": [
        "2026-02-18",
        "2026-02-14",
        "2026-02-21"
      ],
      "teeTimes": [
        0,
        0,
        0
      ]
    },
    {
      "input": "Woodbridge Golf Club",
      "city": "Wylie",
      "slug": "woodbridge-golf-club-texas",
      "slugSource": "name+state",
      "status": "confirmed",
      "club": {
        "uuid": "3db518b3-45f3-47e6-a3e1-197981e5fcbf",
        "id": 14138,
        "name": "Woodbridge Golf Club",
        "slug": "woodbridge-golf-club-texas",
        "city": "Wylie",
        "province": "Texas",
        "country": "United States",
        "address": "7400 Country Club Dr",
        "phone": "(972) 429-5100",
        "website": "http://www.visitwoodbridge.com",
        "postcode": "75098",
        "defaultAffiliationTypeId": 105683,
        "location": {
          "lat": 33.049448,
          "lon": -96.568408
        },
        "courses": [
          {
            "id": 16224,
            "name": "Woodbridge",
            "holes": 18,
            "uuid": "2dc00c55-ea42-4992-98a3-3b1c52304ba2"
          }
        ]
      },
      "datesChecked": [
        "2026-02-18",
        "2026-02-14",
        "2026-02-21"
      ],
      "teeTimes": [
        24,
        0,
        24
      ]
    },
    {
      "input": "Trophy Club Country Club",
      "city": "Trophy Club",
      "slug": "",
      "slugSource": "",
      "status": "miss"
    },
    {
      "input": "Gentle Creek Golf Club",
      "city": "Prosper",
      "slug": "gentle-creek-golf-club",
      "slugSource": "name+state",
      "status": "listed_only",
      "club": {
        "uuid": "fe95fd0e-c7e8-4fb7-b844-f8c0d1a0db99",
        "id": 13617,
        "name": "Gentle Creek Golf Club",
        "slug": "gentle-creek-golf-club",
        "city": "Prosper",
        "province": "Texas",
        "country": "United States",
        "address": "3131 E Prosper Trail",
        "phone": "(972) 346-2500",
        "website": "http://www.gentlecreek.com",
        "postcode": "75078",
        "defaultAffiliationTypeId": 55290,
        "location": {
          "lat": 33.247832,
          "lon": -96.855763
        },
        "courses": [
          {
            "id": 15597,
            "name": "Gentle Creek",
            "holes": 18,
            "uuid": "ff2881e6-d0fe-4b09-ae5c-4e1b54bef8a8"
          }
        ]
      },
      "datesChecked": [
        "2026-02-18",
        "2026-02-14",
        "2026-02-21"
      ],
      "teeTimes": [
        0,
        0,
        0
      ]
    }
  ],
  "state": "TX",
  "timestamp": "2026-02-14T22:20:21-07:00",
  "totalInput": 60,
  "validationDates": [
    "2026-02-18",
    "2026-02-14",
    "2026-02-21"
  ],
  "wrongState": 7
}