{
  "confirmed": 1,
  "elapsed": "1m49.993233834s",
  "listedOnly": 20,
  "misses": 19,
  "platform": "chronogolf",
  "results": [
    {
      "input": "Angel Park Golf Club - Mountain",
      "city": "Las Vegas",
      "slug": "",
      "slugSource": "",
      "status": "miss"
    },
    {
      "input": "Angel Park Golf Club - Palm",
      "city": "Las Vegas",
      "slug": "",
      "slugSource": "",
      "status": "miss"
    },
    {
      "input": "Angel Park Golf Club - Cloud Nine",
      "city": "Las Vegas",
      "slug": "",
      "slugSource": "",
      "status": "miss"
    },
    {
      "input": "Bear's Best Golf Club",
      "city": "Las Vegas",
      "slug": "bears-best-golf-club",
      "slugSource": "name",
      "status": "wrong_state",
      "club": {
        "uuid": "8f353c8c-45ac-410a-b600-f14b3f6ec73c",
        "id": 4661,
        "name": "Bears Best Golf Club",
        "slug": "bears-best-golf-club",
        "city": "Suwanee",
        "province": "Georgia",
        "country": "United States",
        "address": "5342 Aldeburgh Dr",
        "phone": "(678) 714-2582",
        "website": "http://www.bearsbest.com",
        "postcode": "30024",
        "defaultAffiliationTypeId": 19466,
        "location": {
          "lat": 34.088799,
          "lon": -84.100613
        },
        "courses": [
          {
            "id": 5495,
            "name": "Bears Best",
            "holes": 18,
            "uuid": "7351ed88-31ec-4597-a60f-6f60f569b416"
          }
        ]
      }
    },
    {
      "input": "Desert Pines Golf Club",
      "city": "Las Vegas",
      "slug": "desert-pines-golf-club",
      "slugSource": "name+state",
      "status": "listed_only",
      "club": {
        "uuid": "a53883cc-89d2-4909-8013-60bf63559ca3",
        "id": 10200,
        "name": "Desert Pines Golf Club",
        "slug": "desert-pines-golf-club",
        "city": "Las Vegas",
        "province": "Nevada",
        "country": "United States",
        "address": "3415 E Bonanza Rd",
        "phone": "(702) 388-4400",
        "website": "http://www.desertpines.com",
        "postcode": "89122",
        "defaultAffiliationTypeId": 41622,
        "location": {
          "lat": 36.173517,
          "lon": -115.100212
        },
        "courses": [
          {
            "id": 11716,
            "name": "Desert Pines",
            "holes": 18,
            "uuid": "df980a9b-f9b4-4ce2-a1f5-74846800acc4"
          }
        ]
      },
      "datesChecked": [
        "2026-02-18",
        "2026-02-14",
        "2026-02-21"
      ],
      "teeTimes": [
        0,
        0,
        0
      ]
    },
    {
      "input": "Durango Hills Golf Club",
      "city": "Las Vegas",
      "slug": "",
      "slugSource": "",
      "status": "miss"
    },
    {
      "input": "Eagle Crest Golf Course",
      "city": "Las Vegas",
      "slug": "eagle-crest-golf-course-nevada",
      "slugSource": "name+state",
      "status": "listed_only",
      "club": {
        "uuid": "d565ce2b-204c-4091-a937-b2180a32550f",
        "id": 10204,
        "name": "Eagle Crest Golf Course",
        "slug": "eagle-crest-golf-course-nevada",
        "city": "Las Vegas",
        "province": "Nevada",
        "country": "United States",
        "address": "2203 Thomas Ryan Blvd",
        "phone": "(702) 233-3096",
        "website": "http://www.golfsummerlin.com",
        "postcode": "89134",
        "defaultAffiliationTypeId": 41638,
        "location": {
          "lat": 36.204314,
          "lon": -115.332699
        },
        "courses": [
          {
            "id": 11720,
            "name": "Eagle Crest",
            "holes": 18,
            "uuid": "dd307f4e-f2a3-4729-9205-9b3ad8d3c848"
          }
        ]
      },
      "datesChecked": [
        "2026-02-18",
        "2026-02-14",
        "2026-02-21"
      ],
      "teeTimes": [
        0,
        0,
        0
      ]
    },
    {
      "input": "Highland Falls Golf Course",
      "city": "Las Vegas",
      "slug": "",
      "slugSource": "",
      "status": "miss"
    },
    {
      "input": "Las Vegas Golf Club",
      "city": "Las Vegas",
      "slug": "las-vegas-golf-club",
      "slugSource": "name+state",
      "status": "listed_only",
      "club": {
        "uuid": "caf56c96-6852-4b76-af1d-990963ae8b4d",
        "id": 10222,
        "name": "Las Vegas Golf Club",
        "slug": "las-vegas-golf-club",
        "city": "Las Vegas",
        "province": "Nevada",
        "country": "United States",
        "address": "4300 W Washington Ave",
        "phone": "(702) 646-3003",
        "website": "http://www.lasvegasgc.com",
        "postcode": "89107",
        "defaultAffiliationTypeId": 41710,
        "location": {
          "lat": 36.181071,
          "lon": -115.198066
        },
        "courses": [
          {
            "id": 11741,
            "name": "Las Vegas",
            "holes": 18,
            "uuid": "983e6ddb-f220-453b-9f51-5d939d910a74"
          }
        ]
      },
      "datesChecked": [
        "2026-02-18",
        "2026-02-14",
        "2026-02-21"
      ],
      "teeTimes": [
        0,
        0,
        0
      ]
    },
    {
      "input": "Las Vegas National Golf Club",
      "city": "Las Vegas",
      "slug": "las-vegas-national-golf-course",
      "slugSource": "swap-golf-course",
      "status": "listed_only",
      "club": {
        "uuid": "79c4a470-a361-4af7-a5dd-0ee5678bcf83",
        "id": 10223,
        "name": "Las Vegas National Golf Course",
        "slug": "las-vegas-national-golf-course",
        "city": "Las Vegas",
        "province": "Nevada",
        "country": "United States",
        "address": "1911 E Desert Inn Rd",
        "phone": "(702) 796-0013",
        "website": "http://www.lasvegasnational.com",
        "postcode": "89109",
        "defaultAffiliationTypeId": 41714,
        "location": {
          "lat": 36.129863,
          "lon": -115.125834
        },
        "courses": [
          {
            "id": 11742,
            "name": "Las Vegas National",
            "holes": 18,
            "uuid": "1835e5d2-dc0a-4658-9e7c-b2d7cf077337"
          }
        ]
      },
      "datesChecked": [
        "2026-02-18",
        "2026-02-14",
        "2026-02-21"
      ],
      "teeTimes": [
        0,
        0,
        0
      ]
    },
    {
      "input": "Los Prados Golf Course",
      "city": "Las Vegas",
      "slug": "los-prados-golf-course",
      "slugSource": "name+state",
      "status": "listed_only",
      "club": {
        "uuid": "c46f9b8a-192a-410d-8427-be535c1bdec6",
        "id": 10225,
        "name": "Los Prados Golf Course",
        "slug": "los-prados-golf-course",
        "city": "Las Vegas",
        "province": "Nevada",
        "country": "United States",
        "address": "5150 Los Prados Circle",
        "phone": "(702) 645-5696",
        "website": "http://www.losprados-golf.com",
        "postcode": "89130",
        "defaultAffiliationTypeId": 41722,
        "location": {
          "lat": 36.253133,
          "lon": -115.21792
        },
        "courses": [
          {
            "id": 11746,
            "name": "Los Prados",
            "holes": 18,
            "uuid": "64315efb-2387-4111-943e-f252595b42df"
          }
        ]
      },
      "datesChecked": [
        "2026-02-18",
        "2026-02-14",
        "2026-02-21"
      ],
      "teeTimes": [
        0,
        0,
        0
      ]
    },
    {
      "input": "Painted Desert Golf Club",
      "city": "Las Vegas",
      "slug": "painted-desert-golf-club",
      "slugSource": "name+state",
      "status": "listed_only",
      "club": {
        "uuid": "b8110d43-26d0-48eb-b213-0c8fa164f3d5",
        "id": 10232,
        "name": "Painted Desert Golf Club",
        "slug": "painted-desert-golf-club",
        "city": "Las Vegas",
        "province": "Nevada",
        "country": "United States",
        "address": "5555 Painted Mirage Way",
        "phone": "(702) 645-2568",
        "website": "http://www.painteddesertgc.com",
        "postcode": "89129",
        "defaultAffiliationTypeId": 41750,
        "location": {
          "lat": 36.26067,
          "lon": -115.259033
        },
        "courses": [
          {
            "id": 11753,
            "name": "Painted Desert",
            "holes": 18,
            "uuid": "23b40fe0-ac70-4e8a-bba2-aaf9c6572c30"
          }
        ]
      },
      "datesChecked": [
        "2026-02-18",
        "2026-02-14",
        "2026-02-21"
      ],
      "teeTimes": [
        0,
        0,
        0
      ]
    },
    {
      "input": "Palm Valley Golf Course",
      "city": "Las Vegas",
      "slug": "palm-valley-golf-club-nevada",
      "slugSource": "swap-golf-club",
      "status": "listed_only",
      "club": {
        "uuid": "f39275a0-138c-4e70-b3b2-e9331438a695",
        "id": 10233,
        "name": "Palm Valley Golf Club",
        "slug": "palm-valley-golf-club-nevada",
        "city": "Las Vegas",
        "province": "Nevada",
        "country": "United States",
        "address": "9201 Del Webb Blvd # B",
        "phone": "(702) 363-4373",
        "website": "http://www.golfsummerlin.com",
        "postcode": "89134",
        "defaultAffiliationTypeId": 41754,
        "location": {
          "lat": 36.211649,
          "lon": -115.295065
        },
        "courses": [
          {
            "id": 11754,
            "name": "Sun City Summerlin",
            "holes": 18,
            "uuid": "def35901-b66a-4475-b0dc-78caf7693ba9"
          }
        ]
      },
      "datesChecked": [
        "2026-02-18",
        "2026-02-14",
        "2026-02-21"
      ],
      "teeTimes": [
        0,
        0,
        0
      ]
    },
    {
      "input": "Red Rock Arroyo Golf Club",
      "city": "Las Vegas",
      "slug": "",
      "slugSource": "",
      "status": "miss"
    },
    {
      "input": "Rhodes Ranch Golf Club",
      "city": "Las Vegas",
      "slug": "rhodes-ranch-country-club",
      "slugSource": "swap-country-club",
      "status": "listed_only",
      "club": {
        "uuid": "a0b06e01-a5c2-457e-82f6-9b0ea3a2c81c",
        "id": 10239,
        "name": "Rhodes Ranch Country Club",
        "slug": "rhodes-ranch-country-club",
        "city": "Las Vegas",
        "province": "Nevada",
        "country": "United States",
        "address": "20 Rhodes Ranch Pkwy",
        "phone": "(702) 740-4114",
        "website": "http://www.rhodesranch.com",
        "postcode": "89113",
        "defaultAffiliationTypeId": 41778,
        "location": {
          "lat": 36.041634,
          "lon": -115.289195
        },
        "courses": [
          {
            "id": 11762,
            "name": "Rhodes Ranch",
            "holes": 18,
            "uuid": "7e983907-ee2e-4edb-b819-0e576d1bd331"
          }
        ]
      },
      "datesChecked": [
        "2026-02-18",
        "2026-02-14",
        "2026-02-21"
      ],
      "teeTimes": [
        0,
        0,
        0
      ]
    },
    {
      "input": "Royal Links Golf Club",
      "city": "Las Vegas",
      "slug": "royal-links-golf-club",
      "slugSource": "name+state",
      "status": "listed_only",
      "club": {
        "uuid": "ef208e33-72e4-458e-a21d-2fdb05d0d90f",
        "id": 10243,
        "name": "Royal Links Golf Club",
        "slug": "royal-links-golf-club",
        "city": "Las Vegas",
        "province": "Nevada",
        "country": "United States",
        "address": "5995 E Vegas Valley Blvd",
        "phone": "(702) 450-8123",
        "website": "http://www.royallinksgolfclub.com",
        "postcode": "89122",
        "defaultAffiliationTypeId": 41794,
        "location": {
          "lat": 36.137221,
          "lon": -115.044065
        },
        "courses": [
          {
            "id": 11766,
            "name": "Royal",
            "holes": 18,
            "uuid": "5e5d1d96-763e-46c2-8c8c-fac06a98e3b7"
          }
        ]
      },
      "datesChecked": [
        "2026-02-18",
        "2026-02-14",
        "2026-02-21"
      ],
      "teeTimes": [
        0,
        0,
        0
      ]
    },
    {
      "input": "Siena Golf Club",
      "city": "Las Vegas",
      "slug": "siena-golf-club",
      "slugSource": "name+state",
      "status": "listed_only",
      "club": {
        "uuid": "e1122613-5916-475e-a555-7ebdae1b01c9",
        "id": 10246,
        "name": "Siena Golf Club",
        "slug": "siena-golf-club",
        "city": "Las Vegas",
        "province": "Nevada",
        "country": "United States",
        "address": "10575 Siena Monte Ave",
        "phone": "(702) 341-9200",
        "website": "http://www.sienagolfclub.com",
        "postcode": "89135",
        "defaultAffiliationTypeId": 41806,
        "location": {
          "lat": 36.109331,
          "lon": -115.322443
        },
        "courses": [
          {
            "id": 11769,
            "name": "Siena",
            "holes": 18,
            "uuid": "891668ce-469c-4c26-be70-39a7ceaa5847"
          }
        ]
      },
      "datesChecked": [
        "2026-02-18",
        "2026-02-14",
        "2026-02-21"
      ],
      "teeTimes": [
        0,
        0,
        0
      ]
    },
    {
      "input": "TPC Las Vegas",
      "city": "Las Vegas",
      "slug": "tpc-las-vegas",
      "slugSource": "name+state",
      "status": "listed_only",
      "club": {
        "uuid": "e9dfde36-8541-4615-abbc-5973f1ed3ba9",
        "id": 10266,
        "name": "TPC Las Vegas",
        "slug": "tpc-las-vegas",
        "city": "Las Vegas",
        "province": "Nevada",
        "country": "United States",
        "address": "9851 Canyon Run Dr",
        "phone": "(702) 256-2500",
        "website": "http://www.tpc.com/lasvegas",
        "postcode": "89144",
        "defaultAffiliationTypeId": 41886,
        "location": {
          "lat": 36.179346,
          "lon": -115.311458
        },
        "courses": [
          {
            "id": 11798,
            "name": "TPC at The Canyons",
            "holes": 18,
            "uuid": "3d554993-52ff-47b1-8571-2a121422d026"
          }
        ]
      },
      "datesChecked": [
        "2026-02-18",
        "2026-02-14",
        "2026-02-21"
      ],
      "teeTimes": [
        0,
        0,
        0
      ]
    },
    {
      "input": "Wynn Golf Club",
      "city": "Las Vegas",
      "slug": "",
      "slugSource": "",
      "status": "miss"
    },
    {
      "input": "Cascata Golf Club",
      "city": "Henderson",
      "slug": "cascata-golf-club",
      "slugSource": "name+state",
      "status": "listed_only",
      "club": {
        "uuid": "66638279-0156-455b-88ec-1b0ab1e1d5b3",
        "id": 10195,
        "name": "Cascata Golf Club",
        "slug": "cascata-golf-club",
        "city": "Boulder City",
        "province": "Nevada",
        "country": "United States",
        "address": "One Cascata Drive",
        "phone": "(702) 294-2000",
        "website": "http://www.caesars.com",
        "postcode": "89005",
        "defaultAffiliationTypeId": 41602,
        "location": {
          "lat": 35.970404,
          "lon": -114.893432
        },
        "courses": [
          {
            "id": 11711,
            "name": "Cascata",
            "holes": 18,
            "uuid": "cd295934-990a-4fef-82bf-8b23e7bed155"
          }
        ]
      },
      "datesChecked": [
        "2026-02-18",
        "2026-02-14",
        "2026-02-21"
      ],
      "teeTimes": [
        0,
        0,
        0
      ]
    },
    {
      "input": "Chimera Golf Club",
      "city": "Henderson",
      "slug": "",
      "slugSource": "",
      "status": "miss"
    },
    {
      "input": "Desert Willow Golf Course",
      "city": "Henderson",
      "slug": "desert-willow-golf-course",
      "slugSource": "name+state",
      "status": "listed_only",
      "club": {
        "uuid": "b4618061-e897-4932-b47c-28bdf436ef8f",
        "id": 10202,
        "name": "Desert Willow Golf Course",
        "slug": "desert-willow-golf-course",
        "city": "Henderson",
        "province": "Nevada",
        "country": "United States",
        "address": "2020 W Horizon Ridge Pkwy",
        "phone": "(702) 263-4653",
        "website": "http://www.delwebb.com",
        "postcode": "89012",
        "defaultAffiliationTypeId": 41630,
        "location": {
          "lat": 36.005091,
          "lon": -115.072466
        },
        "courses": [
          {
            "id": 11718,
            "name": "Desert Willow",
            "holes": 18,
            "uuid": "f6d4ecc4-f3c7-48ae-99dd-f220cabb4c43"
          }
        ]
      },
      "datesChecked": [
        "2026-02-18",
        "2026-02-14",
        "2026-02-21"
      ],
      "teeTimes": [
        0,
        0,
        0
      ]
    },
    {
      "input": "Legacy Golf Club",
      "city": "Henderson",
      "slug": "legacy-golf-club",
      "slugSource": "name",
      "status": "wrong_state",
      "club": {
        "uuid": "ae841c8f-4a33-41ef-abc4-ef88d00a586e",
        "id": 5257,
        "name": "Legacy Golf Club",
        "slug": "legacy-golf-club",
        "city": "Norwalk",
        "province": "Iowa",
        "country": "United States",
        "address": "400 Legacy Pkwy",
        "phone": "(515) 287-7885",
        "website": "http://www.thelegacygolflcub.com",
        "postcode": "50211",
        "defaultAffiliationTypeId": 21850,
        "location": {
          "lat": 41.4888613,
          "lon": -93.6832135
        },
        "courses": [
          {
            "id": 6167,
            "name": "Legacy",
            "holes": 18,
            "uuid": "9f1cf1ae-951d-4205-b1e9-0e874757b5af"
          }
        ]
      }
    },
    {
      "input": "Reflection Bay Golf Club",
      "city": "Henderson",
      "slug": "reflection-bay-golf-club",
      "slugSource": "name+state",
      "status": "listed_only",
      "club": {
        "uuid": "74117d5e-a8e6-41ad-a2ff-f8f19dde329c",
        "id": 10237,
        "name": "Reflection Bay Golf Club",
        "slug": "reflection-bay-golf-club",
        "city": "Henderson",
        "province": "Nevada",
        "country": "United States",
        "address": "75 MonteLago Blvd",
        "phone": "(702) 740-4653",
        "website": "http://www.lakelasvegas.com",
        "postcode": "89011",
        "defaultAffiliationTypeId": 41770,
        "location": {
          "lat": 36.105772,
          "lon": -114.929968
        },
        "courses": [
          {
            "id": 11759,
            "name": "Reflection Bay",
            "holes": 18,
            "uuid": "50da29cf-6a3b-4d86-9e7b-ce0f1d31aca2"
          }
        ]
      },
      "datesChecked": [
        "2026-02-18",
        "2026-02-14",
        "2026-02-21"
      ],
      "teeTimes": [
        0,
        0,
        0
      ]
    },
    {
      "input": "Revere Golf Club - Concord",
      "city": "Henderson",
      "slug": "",
      "slugSource": "",
      "status": "miss"
    },
    {
      "input": "Revere Golf Club - Lexington",
      "city": "Henderson",
      "slug": "",
      "slugSource": "",
      "status": "miss"
    },
    {
      "input": "Serket Golf Club",
      "city": "Henderson",
      "slug": "",
      "slugSource": "",
      "status": "miss"
    },
    {
      "input": "Wildhorse Golf Club",
      "city": "Henderson",
      "slug": "wildhorse-golf-club",
      "slugSource": "name+state",
      "status": "listed_only",
      "club": {
        "uuid": "ab15f4ca-b13e-4885-9dc8-8b070db59659",
        "id": 10272,
        "name": "Wildhorse Golf Club",
        "slug": "wildhorse-golf-club",
        "city": "Henderson",
        "province": "Nevada",
        "country": "United States",
        "address": "2100 W Warm Springs Rd",
        "phone": "(702) 434-9000",
        "website": "http://www.golfwildhorse.com",
        "postcode": "89014",
        "defaultAffiliationTypeId": 41910,
        "location": {
          "lat": 36.056371,
          "lon": -115.078236
        },
        "courses": [
          {
            "id": 11805,
            "name": "Wild Horse",
            "holes": 18,
            "uuid": "f6adfb49-1f51-4589-b9e5-b46607f5d885"
          }
        ]
      },
      "datesChecked": [
        "2026-02-18",
        "2026-02-14",
        "2026-02-21"
      ],
      "teeTimes": [
        0,
        0,
        0
      ]
    },
    {
      "input": "Aliante Golf Club",
      "city": "North Las Vegas",
      "slug": "aliante-golf-club",
      "slugSource": "name+state",
      "status": "listed_only",
      "club": {
        "uuid": "cfbce232-62c4-418b-b099-49088ac51951",
        "id": 10180,
        "name": "Aliante Golf Club",
        "slug": "aliante-golf-club",
        "city": "North Las Vegas",
        "province": "Nevada",
        "country": "United States",
        "address": "3100 W Elkhorn",
        "phone": "(702) 399-4888",
        "website": "http://www.aliantegolf.com",
        "postcode": "89084",
        "defaultAffiliationTypeId": 41542,
        "location": {
          "lat": 36.2946828,
          "lon": -115.1781146
        },
        "courses": [
          {
            "id": 11687,
            "name": "Aliante",
            "holes": 18,
            "uuid": "c713b887-9d4a-4d52-b325-c08a69ba9c3c"
          }
        ]
      },
      "datesChecked": [
        "2026-02-18",
        "2026-02-14",
        "2026-02-21"
      ],
      "teeTimes": [
        0,
        0,
        0
      ]
    },
    {
      "input": "Shadow Creek Golf Course",
      "city": "North Las Vegas",
      "slug": "shadow-creek-golf-course",
      "slugSource": "name+state",
      "status": "listed_only",
      "club": {
        "uuid": "4754e125-8d11-4b56-9f3e-fba6ebe572db",
        "id": 10245,
        "name": "Shadow Creek Golf Course",
        "slug": "shadow-creek-golf-course",
        "city": "North Las Vegas",
        "province": "Nevada",
        "country": "United States",
        "address": "3 Shadow Creek Dr",
        "phone": "(866) 260-0069",
        "website": "http://www.shadowcreek.com",
        "postcode": "89031",
        "defaultAffiliationTypeId": 41802,
        "location": {
          "lat": 36.257643,
          "lon": -115.117004
        },
        "courses": [
          {
            "id": 11768,
            "name": "Shadow Creek",
            "holes": 18,
            "uuid": "cb5eaa87-9a06-481d-8666-d385007f0027"
          }
        ]
      },
      "datesChecked": [
        "2026-02-18",
        "2026-02-14",
        "2026-02-21"
      ],
      "teeTimes": [
        0,
        0,
        0
      ]
    },
    {
      "input": "Paiute Golf Resort - Snow Mountain",
      "city": "Las Vegas",
      "slug": "",
      "slugSource": "",
      "status": "miss"
    },
    {
      "input": "Paiute Golf Resort - Sun Mountain",
      "city": "Las Vegas",
      "slug": "",
      "slugSource": "",
      "status": "miss"
    },
    {
      "input": "Paiute Golf Resort - Wolf",
      "city": "Las Vegas",
      "slug": "",
      "slugSource": "",
      "status": "miss"
    },
    {
      "input": "Bali Hai Golf Club",
      "city": "Las Vegas",
      "slug": "bali-hai-golf-club",
      "slugSource": "name+state",
      "status": "listed_only",
      "club": {
        "uuid": "5553e104-b405-419d-9c55-d4239b889c6f",
        "id": 10184,
        "name": "Bali Hai Golf Club",
        "slug": "bali-hai-golf-club",
        "city": "Las Vegas",
        "province": "Nevada",
        "country": "United States",
        "address": "5160 Las Vegas Blvd S",
        "phone": "(702) 450-8000",
        "website": "http://www.waltersgolf.com",
        "postcode": "89119",
        "defaultAffiliationTypeId": 41558,
        "location": {
          "lat": 36.07887,
          "lon": -115.17283
        },
        "courses": [
          {
            "id": 11696,
            "name": "Bali Hai",
            "holes": 18,
            "uuid": "d1e486d8-80c5-4050-a693-6a03a52fe4dc"
          }
        ]
      },
      "datesChecked": [
        "2026-02-18",
        "2026-02-14",
        "2026-02-21"
      ],
      "teeTimes": [
        0,
        0,
        0
      ]
    },
    {
      "input": "Stallion Mountain Golf Club",
      "city": "Las Vegas",
      "slug": "stallion-mountain-golf-club",
      "slugSource": "name+state",
      "status": "listed_only",
      "club": {
        "uuid": "56ea8f35-70da-4fcd-af31-314853064a35",
        "id": 10255,
        "name": "Stallion Mountain Golf Club ",
        "slug": "stallion-mountain-golf-club",
        "city": "Las Vegas",
        "province": "Nevada",
        "country": "United States",
        "address": "5500 E Flamingo Rd",
        "phone": "(702) 456-3160",
        "website": "http://www.stallionmountain.com",
        "postcode": "89122",
        "defaultAffiliationTypeId": 41842,
        "location": {
          "lat": 36.11508,
          "lon": -115.055923
        },
        "courses": [
          {
            "id": 11780,
            "name": "Stallion Mountain ",
            "holes": 18,
            "uuid": "620bd2ac-903f-425d-8beb-327740c9b71b"
          }
        ]
      },
      "datesChecked": [
        "2026-02-18",
        "2026-02-14",
        "2026-02-21"
      ],
      "teeTimes": [
        0,
        0,
        0
      ]
    },
    {
      "input": "Boulder City Golf Course",
      "city": "Boulder City",
      "slug": "",
      "slugSource": "",
      "status": "miss"
    },
    {
      "input": "Boulder Creek Golf Club",
      "city": "Boulder City",
      "slug": "boulder-creek-golf-club-nevada",
      "slugSource": "name+state",
      "status": "listed_only",
      "club": {
        "uuid": "abfcad4b-5c2e-4f37-876d-b7c28efcfc33",
        "id": 10188,
        "name": "Boulder Creek Golf Club",
        "slug": "boulder-creek-golf-club-nevada",
        "city": "Boulder City",
        "province": "Nevada",
        "country": "United States",
        "address": "1501 Veterans Memorial Dr",
        "phone": "(702) 294-6534",
        "website": "http://www.bouldercreekgc.com",
        "postcode": "89005",
        "defaultAffiliationTypeId": 41574,
        "location": {
          "lat": 35.960795,
          "lon": -114.859702
        },
        "courses": [
          {
            "id": 11703,
            "name": "Desert Hawk/El Dorado",
            "holes": 18,
            "uuid": "fe4aa5bf-9669-463e-b158-1b7bd4126941"
          },
          {
            "id": 11702,
            "name": "Desert Hawk/Coyote Run",
            "holes": 18,
            "uuid": "707b6a4a-4bfc-4b8a-8d01-fb74541ef5b3"
          },
          {
            "id": 11704,
            "name": "El Dorado/Coyote Run",
            "holes": 18,
            "uuid": "edf84ece-baf5-4a76-8d49-859e4c3f98a9"
          }
        ]
      },
      "datesChecked": [
        "2026-02-18",
        "2026-02-14",
        "2026-02-21"
      ],
      "teeTimes": [
        0,
        0,
        0
      ]
    },
    {
      "input": "Primm Valley Golf Club - Desert",
      "city": "Primm",
      "slug": "",
      "slugSource": "",
      "status": "miss"
    },
    {
      "input": "Primm Valley Golf Club - Lakes",
      "city": "Primm",
      "slug": "",
      "slugSource": "",
      "status": "miss"
    },
    {
      "input": "Coyote Springs Golf Club",
      "city": "Coyote Springs",
      "slug": "",
      "slugSource": "",
      "status": "miss"
    },
    {
      "input": "North Las Vegas Par 3 Golf Course",
      "city": "North Las Vegas",
      "slug": "",
      "slugSource": "",
      "status": "miss"
    },
    {
      "input": "The Club at Sunrise",
      "city": "Las Vegas",
      "slug": "the-club-at-sunrise",
      "slugSource": "name",
      "status": "confirmed",
      "club": {
        "uuid": "47bde68e-80ab-4265-a3fe-a102a111e744",
        "id": 18831,
        "name": "The Club at Sunrise",
        "slug": "the-club-at-sunrise",
        "city": "Las Vegas",
        "province": "Nevada",
        "country": "United States",
        "address": "5483 Club House Drive",
        "phone": "702-207-7501",
        "website": "https://www.theclubatsunrise.com/",
        "postcode": "89142",
        "defaultAffiliationTypeId": 112064,
        "location": {
          "lat": 36.1425708095187,
          "lon": -115.054722215796
        },
        "courses": [
          {
            "id": 22773,
            "name": "The Club at Sunrise",
            "holes": 18,
            "uuid": "5b099aff-aa7c-4e50-8413-39da67a133e0"
          }
        ]
      },
      "datesChecked": [
        "2026-02-18",
        "2026-02-14",
        "2026-02-21"
      ],
      "teeTimes": [
        24,
        16,
        24
      ]
    }
  ],
  "state": "NV",
  "timestamp": "2026-02-14T14:07:37-07:00",
  "totalInput": 42,
  "validationDates": [
    "2026-02-18",
    "2026-02-14",
    "2026-02-21"
  ],
  "wrongState": 2
}