{
  "confirmed": 3,
  "elapsed": "2m28.675290291s",
  "listedOnly": 51,
  "missed": 24,
  "platform": "chronogolf",
  "results": [
    {
      "input": "Aguila Golf Course",
      "city": "Phoenix",
      "slug": "aguila-golf-club",
      "status": "listed_only",
      "club": {
        "uuid": "73cbdf79-26e3-43e9-9d4d-f410f206a852",
        "id": 2154,
        "name": "Aguila Golf Club",
        "slug": "aguila-golf-club",
        "city": "Laveen",
        "province": "Arizona",
        "country": "United States",
        "address": "8440 S 35th Ave",
        "phone": "(602) 237-9601",
        "website": "http://www.phoenix.gov",
        "postcode": "85339",
        "defaultAffiliationTypeId": 9438,
        "location": {
          "lat": 33.369892,
          "lon": -112.13478
        },
        "courses": [
          {
            "id": 2473,
            "name": "Championship",
            "holes": 18,
            "uuid": "95707cd4-7f7e-4e52-a93e-4154dc9d71b3"
          }
        ]
      },
      "datesChecked": [
        "2026-02-18",
        "2026-02-14",
        "2026-02-21"
      ],
      "teeTimes": [
        0,
        0,
        0
      ]
    },
    {
      "input": "Cave Creek Golf Course",
      "city": "Phoenix",
      "slug": "cave-creek-golf-course",
      "status": "listed_only",
      "club": {
        "uuid": "91bc223b-847f-47a3-a8c9-4bad21351655",
        "id": 2187,
        "name": "Cave Creek Golf Course",
        "slug": "cave-creek-golf-course",
        "city": "Phoenix",
        "province": "Arizona",
        "country": "United States",
        "address": "15202 N 19th Ave",
        "phone": "(602) 866-8076",
        "website": "http://phoenix.gov/recreation/rec/facilities/golf/golfcourses/index.html",
        "postcode": "85023",
        "defaultAffiliationTypeId": 9570,
        "location": {
          "lat": 33.623414,
          "lon": -112.099678
        },
        "courses": [
          {
            "id": 2511,
            "name": "Cave Creek",
            "holes": 18,
            "uuid": "69fcea81-575f-4c9c-b20b-0fcbd91994df"
          }
        ]
      },
      "datesChecked": [
        "2026-02-18",
        "2026-02-14",
        "2026-02-21"
      ],
      "teeTimes": [
        0,
        0,
        0
      ]
    },
    {
      "input": "Encanto Golf Course",
      "city": "Phoenix",
      "slug": "",
      "status": "miss"
    },
    {
      "input": "Encanto 9-Hole Golf Course",
      "city": "Phoenix",
      "slug": "",
      "status": "miss"
    },
    {
      "input": "Palo Verde Golf Course",
      "city": "Phoenix",
      "slug": "palo-verde-golf-course-arizona--2",
      "status": "listed_only",
      "club": {
        "uuid": "211875e0-f78b-484b-818c-4aa3a1524704",
        "id": 2311,
        "name": "Palo Verde Golf Course",
        "slug": "palo-verde-golf-course-arizona--2",
        "city": "Sun Lakes",
        "province": "Arizona",
        "country": "United States",
        "address": "10801 San Tan Blvd",
        "phone": "(480) 895-0300",
        "website": "http://www.cottonwoodpaloverde.com/htmlnew/golf.html",
        "postcode": "85248",
        "defaultAffiliationTypeId": 10066,
        "location": {
          "lat": 33.210882,
          "lon": -111.848209
        },
        "courses": [
          {
            "id": 2662,
            "name": "Palo Verde",
            "holes": 18,
            "uuid": "a865c6ea-98a3-4533-81fa-dc20f6101f05"
          }
        ]
      },
      "datesChecked": [
        "2026-02-18",
        "2026-02-14",
        "2026-02-21"
      ],
      "teeTimes": [
        0,
        0,
        0
      ]
    },
    {
      "input": "Papago Golf Course",
      "city": "Phoenix",
      "slug": "papago-golf-course",
      "status": "listed_only",
      "club": {
        "uuid": "fe591ac0-636a-4b18-8b4b-a0adb427a62f",
        "id": 2312,
        "name": "Papago Golf Course",
        "slug": "papago-golf-course",
        "city": "Phoenix",
        "province": "Arizona",
        "country": "United States",
        "address": "5595 E Moreland St",
        "phone": "(602) 275-8428",
        "website": "http://phoenix.gov/recreation/rec/facilities/golf/golfcourses/index.html",
        "postcode": "85008",
        "defaultAffiliationTypeId": 10070,
        "location": {
          "lat": 33.462284,
          "lon": -111.961032
        },
        "courses": [
          {
            "id": 2663,
            "name": "Papago",
            "holes": 18,
            "uuid": "a7f7ccbf-d118-4ca8-89f4-65a45dd94df1"
          }
        ]
      },
      "datesChecked": [
        "2026-02-18",
        "2026-02-14",
        "2026-02-21"
      ],
      "teeTimes": [
        0,
        0,
        0
      ]
    },
    {
      "input": "Maryvale Golf Course",
      "city": "Phoenix",
      "slug": "",
      "status": "miss"
    },
    {
      "input": "Coronado Golf Course",
      "city": "Scottsdale",
      "slug": "coronado-golf-course",
      "status": "listed_only",
      "club": {
        "uuid": "5bdf2ab3-5571-4db9-b0ee-3ba958353c32",
        "id": 2199,
        "name": "Coronado Golf Course",
        "slug": "coronado-golf-course",
        "city": "Scottsdale",
        "province": "Arizona",
        "country": "United States",
        "address": "2829 N Miller Rd",
        "phone": "(480) 947-8364",
        "website": "http://www.coronadogolfscottsdale.com",
        "postcode": "85257",
        "defaultAffiliationTypeId": 9618,
        "location": {
          "lat": 33.478752,
          "lon": -111.917544
        },
        "courses": [
          {
            "id": 2523,
            "name": "Coronado",
            "holes": 9,
            "uuid": "f9235b26-3b79-431e-8dec-f44faaec488e"
          }
        ]
      },
      "datesChecked": [
        "2026-02-18",
        "2026-02-14",
        "2026-02-21"
      ],
      "teeTimes": [
        0,
        0,
        0
      ]
    },
    {
      "input": "Continental Golf Club",
      "city": "Scottsdale",
      "slug": "continental-golf-course",
      "status": "listed_only",
      "club": {
        "uuid": "9d1a8412-1890-4116-8c2e-03826d4e167a",
        "id": 2197,
        "name": "Continental Golf Course",
        "slug": "continental-golf-course",
        "city": "Scottsdale",
        "province": "Arizona",
        "country": "United States",
        "address": "7920 E Osborn Rd",
        "phone": "(480) 941-1585",
        "website": "http://www.continentalgc.com",
        "postcode": "85251",
        "defaultAffiliationTypeId": 9610,
        "location": {
          "lat": 33.487011,
          "lon": -111.914566
        },
        "courses": [
          {
            "id": 2521,
            "name": "Continental",
            "holes": 18,
            "uuid": "de9d67ad-4246-495a-bab0-136828e9e3e9"
          }
        ]
      },
      "datesChecked": [
        "2026-02-18",
        "2026-02-14",
        "2026-02-21"
      ],
      "teeTimes": [
        0,
        0,
        0
      ]
    },
    {
      "input": "Ken McDonald Golf Course",
      "city": "Tempe",
      "slug": "ken-mcdonald-golf-course",
      "status": "listed_only",
      "club": {
        "uuid": "8ee3d04d-66f9-40fe-b12b-78562b61d788",
        "id": 2269,
        "name": "Ken McDonald Golf Course",
        "slug": "ken-mcdonald-golf-course",
        "city": "Tempe",
        "province": "Arizona",
        "country": "United States",
        "address": "800 E Divot Dr #A",
        "phone": "(480) 350-5250",
        "website": "http://www.tempe.gov/golf/kenmcdonald",
        "postcode": "85283",
        "defaultAffiliationTypeId": 9898,
        "location": {
          "lat": 33.355578,
          "lon": -111.930849
        },
        "courses": [
          {
            "id": 2608,
            "name": "Ken McDonald",
            "holes": 18,
            "uuid": "93ba1053-f182-4390-b053-3b54394a44d7"
          }
        ]
      },
      "datesChecked": [
        "2026-02-18",
        "2026-02-14",
        "2026-02-21"
      ],
      "teeTimes": [
        0,
        0,
        0
      ]
    },
    {
      "input": "Rolling Hills Golf Course",
      "city": "Tempe",
      "slug": "rolling-hills-golf-course-arizona--2",
      "status": "listed_only",
      "club": {
        "uuid": "907472e3-f9a9-4c1e-87cc-ae7e033c368b",
        "id": 2354,
        "name": "Rolling Hills Golf Course",
        "slug": "rolling-hills-golf-course-arizona--2",
        "city": "Tempe",
        "province": "Arizona",
        "country": "United States",
        "address": "1415 N Mill Ave",
        "phone": "(480) 350-5275",
        "website": "http://www.tempe.gov/index.aspx?page=482",
        "postcode": "85281",
        "defaultAffiliationTypeId": 10238,
        "location": {
          "lat": 33.446066,
          "lon": -111.949967
        },
        "courses": [
          {
            "id": 2705,
            "name": "Rolling Hills",
            "holes": 18,
            "uuid": "592f2245-577f-4502-a5ce-5057a3f3e152"
          }
        ]
      },
      "datesChecked": [
        "2026-02-18",
        "2026-02-14",
        "2026-02-21"
      ],
      "teeTimes": [
        0,
        0,
        0
      ]
    },
    {
      "input": "Dobson Ranch Golf Course",
      "city": "Mesa",
      "slug": "dobson-ranch-golf-course",
      "status": "listed_only",
      "club": {
        "uuid": "8b48eed5-c1b9-46ad-becd-0662b27e1ce5",
        "id": 2219,
        "name": "Dobson Ranch Golf Course",
        "slug": "dobson-ranch-golf-course",
        "city": "Mesa",
        "province": "Arizona",
        "country": "United States",
        "address": "2155 S Dobson Rd",
        "phone": "(480) 644-2291",
        "website": "http://www.dobsonranchgolfcourse.com",
        "postcode": "85202",
        "defaultAffiliationTypeId": 9698,
        "location": {
          "lat": 33.375315,
          "lon": -111.879315
        },
        "courses": [
          {
            "id": 2549,
            "name": "Dobson Ranch",
            "holes": 18,
            "uuid": "7be59136-c9ba-456b-b566-2c3ecb80baa2"
          }
        ]
      },
      "datesChecked": [
        "2026-02-18",
        "2026-02-14",
        "2026-02-21"
      ],
      "teeTimes": [
        0,
        0,
        0
      ]
    },
    {
      "input": "Ak-Chin Southern Dunes Golf Club",
      "city": "Maricopa",
      "slug": "",
      "status": "miss"
    },
    {
      "input": "Arizona Biltmore Golf Club",
      "city": "Phoenix",
      "slug": "arizona-biltmore-golf-club-arizona-phoenix",
      "status": "confirmed",
      "club": {
        "uuid": "c3f1096e-be5f-46d8-9d0c-621553da1300",
        "id": 18077,
        "name": "Arizona Biltmore Golf Club",
        "slug": "arizona-biltmore-golf-club-arizona-phoenix",
        "city": "Phoenix",
        "province": "Arizona",
        "country": "United States",
        "address": "PO Box 10719  ",
        "phone": "602-955-9655",
        "website": "https://azbiltmoregc.com/",
        "postcode": "85064",
        "defaultAffiliationTypeId": 82990,
        "location": {
          "lat": 33.5239,
          "lon": -112.018275
        },
        "courses": [
          {
            "id": 21028,
            "name": "Estates",
            "holes": 18,
            "uuid": "8e62fd78-03bf-4665-9a3a-cc0da2826ac7"
          },
          {
            "id": 21027,
            "name": "Links",
            "holes": 18,
            "uuid": "768df054-3367-45b1-906c-24af39e410ad"
          }
        ]
      },
      "datesChecked": [
        "2026-02-18",
        "2026-02-14",
        "2026-02-21"
      ],
      "teeTimes": [
        24,
        24,
        24
      ]
    },
    {
      "input": "Arizona Grand Golf Course",
      "city": "Phoenix",
      "slug": "",
      "status": "miss"
    },
    {
      "input": "ASU Karsten Golf Course",
      "city": "Tempe",
      "slug": "asu-karsten-golf-course",
      "status": "listed_only",
      "club": {
        "uuid": "354fa91b-85ae-4326-a0aa-6643a8ae7c7b",
        "id": 2174,
        "name": "ASU Karsten Golf Course",
        "slug": "asu-karsten-golf-course",
        "city": "Tempe",
        "province": "Arizona",
        "country": "United States",
        "address": "1125 E Rio Salado Pkwy",
        "phone": "(480) 921-8070",
        "website": "http://www.asukarsten.com",
        "postcode": "85281",
        "defaultAffiliationTypeId": 9518,
        "location": {
          "lat": 33.429298,
          "lon": -111.922142
        },
        "courses": [
          {
            "id": 2496,
            "name": "Karsten",
            "holes": 18,
            "uuid": "87c1e102-f491-4c7f-acbe-b8d663c1f0cb"
          }
        ]
      },
      "datesChecked": [
        "2026-02-18",
        "2026-02-14",
        "2026-02-21"
      ],
      "teeTimes": [
        0,
        0,
        0
      ]
    },
    {
      "input": "Augusta Ranch Golf Club",
      "city": "Mesa",
      "slug": "augusta-ranch-golf-club",
      "status": "listed_only",
      "club": {
        "uuid": "3a963812-72cf-4b81-8cdd-44ef66b6b290",
        "id": 2175,
        "name": "Augusta Ranch Golf Club",
        "slug": "augusta-ranch-golf-club",
        "city": "Mesa",
        "province": "Arizona",
        "country": "United States",
        "address": "2401 S Lansing",
        "phone": "(480) 354-1234",
        "website": "http://www.augustaranchgolf.com",
        "postcode": "85212",
        "defaultAffiliationTypeId": 9522,
        "location": {
          "lat": 33.3755717,
          "lon": -111.6359823
        },
        "courses": [
          {
            "id": 2497,
            "name": "Augusta Ranch",
            "holes": 18,
            "uuid": "4360756b-161d-42f8-a790-230bd5a5b37c"
          }
        ]
      },
      "datesChecked": [
        "2026-02-18",
        "2026-02-14",
        "2026-02-21"
      ],
      "teeTimes": [
        0,
        0,
        0
      ]
    },
    {
      "input": "Bear Creek Golf Complex",
      "city": "Chandler",
      "slug": "bear-creek-golf-complex",
      "status": "listed_only",
      "club": {
        "uuid": "db5f3881-208d-4259-a437-3b704ab27045",
        "id": 2176,
        "name": "Bear Creek Golf Complex ",
        "slug": "bear-creek-golf-complex",
        "city": "Chandler",
        "province": "Arizona",
        "country": "United States",
        "address": "500 E Riggs Rd",
        "phone": "(480)883-8200",
        "website": "http://www.bearcreekaz.com",
        "postcode": "85249",
        "defaultAffiliationTypeId": 9526,
        "location": {
          "lat": 33.222722,
          "lon": -111.833235
        },
        "courses": [
          {
            "id": 2499,
            "name": "Bear",
            "holes": 18,
            "uuid": "6e41d382-7901-4115-b942-46dbb7902d89"
          },
          {
            "id": 2498,
            "name": "Cub",
            "holes": 18,
            "uuid": "ee0e7589-5ac5-4178-a679-044bbeecb0be"
          }
        ]
      },
      "datesChecked": [
        "2026-02-18",
        "2026-02-14",
        "2026-02-21"
      ],
      "teeTimes": [
        0,
        0,
        0
      ]
    },
    {
      "input": "Bellair Golf Club",
      "city": "Glendale",
      "slug": "",
      "status": "miss"
    },
    {
      "input": "Camelback Golf Club",
      "city": "Scottsdale",
      "slug": "camelback-golf-club",
      "status": "listed_only",
      "club": {
        "uuid": "270b7d53-3787-48f9-8c9b-3694bfe11ec1",
        "id": 2183,
        "name": "Camelback Golf Club",
        "slug": "camelback-golf-club",
        "city": "Scottsdale",
        "province": "Arizona",
        "country": "United States",
        "address": "7847 N Mockingbird Ln",
        "phone": "(480) 596-7050",
        "website": "http://www.camelbackgolf.com",
        "postcode": "85253",
        "defaultAffiliationTypeId": 9554,
        "location": {
          "lat": 33.554119,
          "lon": -111.934869
        },
        "courses": [
          {
            "id": 2507,
            "name": "River Bend (Under renovation)",
            "holes": 18,
            "uuid": "5f05d62b-68a9-407d-86e9-f3047106f1fc"
          },
          {
            "id": 2506,
            "name": "Padre",
            "holes": 18,
            "uuid": "58ad4b9c-02c2-48d4-9726-f301f95e4ddc"
          }
        ]
      },
      "datesChecked": [
        "2026-02-18",
        "2026-02-14",
        "2026-02-21"
      ],
      "teeTimes": [
        0,
        0,
        0
      ]
    },
    {
      "input": "Coldwater Golf Club",
      "city": "Avondale",
      "slug": "coldwater-golf-club",
      "status": "listed_only",
      "club": {
        "uuid": "354a55db-e71f-48e0-8b08-5318efaeb4ae",
        "id": 2194,
        "name": "Coldwater Golf Club",
        "slug": "coldwater-golf-club",
        "city": "Avondale",
        "province": "Arizona",
        "country": "United States",
        "address": "100 N Clubhouse Drive",
        "phone": "(623) 932-9000",
        "website": "http://www.coldwatergolfclub.com",
        "postcode": "85323",
        "defaultAffiliationTypeId": 9598,
        "location": {
          "lat": 33.4459734,
          "lon": -112.3189144
        },
        "courses": [
          {
            "id": 2518,
            "name": "Coldwater",
            "holes": 18,
            "uuid": "cb5d0df8-1fb6-47b8-9134-486cfb5aa3aa"
          }
        ]
      },
      "datesChecked": [
        "2026-02-18",
        "2026-02-14",
        "2026-02-21"
      ],
      "teeTimes": [
        0,
        0,
        0
      ]
    },
    {
      "input": "Coyote Lakes Golf Club",
      "city": "Surprise",
      "slug": "coyote-lakes-golf-club",
      "status": "listed_only",
      "club": {
        "uuid": "90d54d82-aced-4e15-96fb-c0d2069ba5f6",
        "id": 2202,
        "name": "Coyote Lakes Golf Club",
        "slug": "coyote-lakes-golf-club",
        "city": "Surprise",
        "province": "Arizona",
        "country": "United States",
        "address": "18800 N Coyote Lakes Pkwy",
        "phone": "(623) 566-2323",
        "website": "http://www.coyotelakesgolfclub.com",
        "postcode": "85374",
        "defaultAffiliationTypeId": 9630,
        "location": {
          "lat": 33.65523,
          "lon": -112.308085
        },
        "courses": [
          {
            "id": 2526,
            "name": "Coyote Lakes",
            "holes": 18,
            "uuid": "670d145f-3b3c-435e-a152-98231db5c68a"
          }
        ]
      },
      "datesChecked": [
        "2026-02-18",
        "2026-02-14",
        "2026-02-21"
      ],
      "teeTimes": [
        0,
        0,
        0
      ]
    },
    {
      "input": "Desert Canyon Golf Club",
      "city": "Fountain Hills",
      "slug": "desert-canyon-golf-club",
      "status": "listed_only",
      "club": {
        "uuid": "f82901d2-2231-429b-a4e6-4890fb2a17a4",
        "id": 2208,
        "name": "Desert Canyon Golf Club",
        "slug": "desert-canyon-golf-club",
        "city": "Fountain Hills",
        "province": "Arizona",
        "country": "United States",
        "address": "10440 N Indian Wells Dr",
        "phone": "(480) 837-1173",
        "website": "http://www.desertcanyongolf.com",
        "postcode": "85268",
        "defaultAffiliationTypeId": 9654,
        "location": {
          "lat": 35.7895738175126,
          "lon": -111.7833245427791
        },
        "courses": []
      }
    },
    {
      "input": "Dove Valley Ranch Golf Club",
      "city": "Cave Creek",
      "slug": "dove-valley-ranch-golf-club",
      "status": "listed_only",
      "club": {
        "uuid": "2b5a1a33-5b6d-4f2d-ad15-d507bee3a605",
        "id": 2223,
        "name": "Dove Valley Ranch Golf Club",
        "slug": "dove-valley-ranch-golf-club",
        "city": "Phoenix",
        "province": "Arizona",
        "country": "United States",
        "address": "33244 N Black Mountain Pkwy",
        "phone": "(480) 488-0009",
        "website": "http://www.dovevalleyranch.com",
        "postcode": "85327",
        "defaultAffiliationTypeId": 9714,
        "location": {
          "lat": 33.787544,
          "lon": -111.991399
        },
        "courses": [
          {
            "id": 2553,
            "name": "Dove Valley Ranch",
            "holes": 18,
            "uuid": "07b99e6f-ea01-470b-b76e-df4ad79e95d7"
          }
        ]
      },
      "datesChecked": [
        "2026-02-18",
        "2026-02-14",
        "2026-02-21"
      ],
      "teeTimes": [
        0,
        0,
        0
      ]
    },
    {
      "input": "Eagle Mountain Golf Club",
      "city": "Fountain Hills",
      "slug": "eagle-mountain-golf-course",
      "status": "wrong_state",
      "club": {
        "uuid": "5396230f-890e-4ba9-9dc0-37208948ef9f",
        "id": 14175,
        "name": "Eagle Mountain Golf Course",
        "slug": "eagle-mountain-golf-course-utah",
        "city": "Brigham City",
        "province": "Utah",
        "country": "United States",
        "address": "960 E 700 S",
        "phone": "(435) 723-3212",
        "website": "http://www.eaglemountaingc.com",
        "postcode": "84302",
        "defaultAffiliationTypeId": 57522,
        "location": {
          "lat": 41.495602,
          "lon": -112.004379
        },
        "courses": [
          {
            "id": 16258,
            "name": "Eagle Mountain",
            "holes": 18,
            "uuid": "5a112f69-9c41-442f-add1-23c394740c48"
          }
        ]
      }
    },
    {
      "input": "Foothills Golf Club",
      "city": "Phoenix",
      "slug": "foothills-golf-club",
      "status": "wrong_state",
      "club": {
        "uuid": "0a987e6b-b3b2-49b5-9bea-2383b08b4630",
        "id": 3316,
        "name": "Foothills Golf Club ",
        "slug": "foothills-golf-club",
        "city": "Denver",
        "province": "Colorado",
        "country": "United States",
        "address": "3901 S Carr St",
        "phone": "(303)989-3901",
        "website": "http://www.foothills.org",
        "postcode": "80235",
        "defaultAffiliationTypeId": 14086,
        "location": {
          "lat": 39.648813,
          "lon": -105.090792
        },
        "courses": [
          {
            "id": 3754,
            "name": "Regulation",
            "holes": 18,
            "uuid": "a7c167c0-4775-4f4d-9967-7c0a45a5422c"
          },
          {
            "id": 3753,
            "name": "Executive",
            "holes": 9,
            "uuid": "6902c8d3-badf-4322-afed-3f89954b0058"
          }
        ]
      }
    },
    {
      "input": "Golf Club of Estrella",
      "city": "Goodyear",
      "slug": "golf-club-of-estrella",
      "status": "listed_only",
      "club": {
        "uuid": "1d7da6b2-e8f6-4aef-8c9f-e388ea2a5f1d",
        "id": 2250,
        "name": "Golf Club of Estrella",
        "slug": "golf-club-of-estrella",
        "city": "Goodyear",
        "province": "Arizona",
        "country": "United States",
        "address": "11800 S Golf Club Dr",
        "phone": "(623) 386-2600",
        "website": "http://www.estrellagolf.com",
        "postcode": "85338",
        "defaultAffiliationTypeId": 9822,
        "location": {
          "lat": 33.338626,
          "lon": -112.431948
        },
        "courses": [
          {
            "id": 2587,
            "name": "Course of Estrella",
            "holes": 18,
            "uuid": "e5021b8e-4ac4-4534-8dcd-c52108abf340"
          }
        ]
      },
      "datesChecked": [
        "2026-02-18",
        "2026-02-14",
        "2026-02-21"
      ],
      "teeTimes": [
        0,
        0,
        0
      ]
    },
    {
      "input": "Golf Club at Johnson Ranch",
      "city": "San Tan Valley",
      "slug": "",
      "status": "miss"
    },
    {
      "input": "Grand Canyon University Golf Course",
      "city": "Phoenix",
      "slug": "",
      "status": "miss"
    },
    {
      "input": "Granite Falls Golf Club",
      "city": "Surprise",
      "slug": "granite-falls-golf-club",
      "status": "listed_only",
      "club": {
        "uuid": "b994a5d3-3e33-4812-a7e3-2d5c4ede57a5",
        "id": 2253,
        "name": "Granite Falls Golf Club ",
        "slug": "granite-falls-golf-club",
        "city": "Surprise",
        "province": "Arizona",
        "country": "United States",
        "address": "15949 W Clearview Blvd",
        "phone": "(623) 546-7575",
        "website": "http://www.grandinfo.com",
        "postcode": "85374",
        "defaultAffiliationTypeId": 9834,
        "location": {
          "lat": 33.654557,
          "lon": -112.404094
        },
        "courses": [
          {
            "id": 2591,
            "name": "South",
            "holes": 18,
            "uuid": "644a886e-a5e7-42b4-9498-4f76673bb6a8"
          },
          {
            "id": 2590,
            "name": "North",
            "holes": 18,
            "uuid": "50cc8c21-8ec8-4a64-ba49-dcd5d236d484"
          }
        ]
      },
      "datesChecked": [
        "2026-02-18",
        "2026-02-14",
        "2026-02-21"
      ],
      "teeTimes": [
        0,
        0,
        0
      ]
    },
    {
      "input": "Grayhawk Golf Club",
      "city": "Scottsdale",
      "slug": "grayhawk-golf-club",
      "status": "listed_only",
      "club": {
        "uuid": "4933349b-ad0f-4c27-b50f-d28cec32f6af",
        "id": 2254,
        "name": "Grayhawk Golf Club ",
        "slug": "grayhawk-golf-club",
        "city": "Scottsdale",
        "province": "Arizona",
        "country": "United States",
        "address": "8620 East Thompson Peak Parkway",
        "phone": "480.502.1800",
        "website": "http://www.grayhawkgolf.com",
        "postcode": "85255",
        "defaultAffiliationTypeId": 9838,
        "location": {
          "lat": 33.677707,
          "lon": -111.896723
        },
        "courses": [
          {
            "id": 2593,
            "name": "Raptor",
            "holes": 18,
            "uuid": "d7ea3401-66e8-45d1-a1f6-bb08ff9eb7a7"
          },
          {
            "id": 2592,
            "name": "Talon",
            "holes": 18,
            "uuid": "46b5af8f-aaf0-4026-8549-1d4b2399e417"
          }
        ]
      },
      "datesChecked": [
        "2026-02-18",
        "2026-02-14",
        "2026-02-21"
      ],
      "teeTimes": [
        0,
        0,
        0
      ]
    },
    {
      "input": "Greenfield Lakes Golf Course",
      "city": "Gilbert",
      "slug": "",
      "status": "miss"
    },
    {
      "input": "Happy Trails Golf Club",
      "city": "Surprise",
      "slug": "",
      "status": "miss"
    },
    {
      "input": "Hillcrest Golf Club",
      "city": "Sun City West",
      "slug": "hillcrest-golf-club",
      "status": "wrong_state",
      "club": {
        "uuid": "e22b24fa-b415-4e17-a82a-dbad07ddde9f",
        "id": 7691,
        "name": "Hillcrest Golf Club",
        "slug": "hillcrest-golf-club-maine",
        "city": "Millinocket",
        "province": "Maine",
        "country": "United States",
        "address": "Westwood Ave",
        "phone": "(207) 723-8410",
        "website": "http://www.hillcrestgolfme.com",
        "postcode": "4462",
        "defaultAffiliationTypeId": 31586,
        "location": {
          "lat": 45.659149,
          "lon": -68.699612
        },
        "courses": [
          {
            "id": 8767,
            "name": "Hillcrest",
            "holes": 9,
            "uuid": "be6f886d-4dc3-4cc5-9ebe-3bb8a06ccb28"
          }
        ]
      }
    },
    {
      "input": "InScape Golf",
      "city": "Mesa",
      "slug": "",
      "status": "miss"
    },
    {
      "input": "Ironwood Golf Course",
      "city": "Chandler",
      "slug": "ironwood-golf-course",
      "status": "wrong_state",
      "club": {
        "uuid": "3edf14c5-0f2f-4501-94c3-a838627e3da0",
        "id": 5786,
        "name": "Ironwood Golf Course",
        "slug": "ironwood-golf-course-illinois",
        "city": "Normal",
        "province": "Illinois",
        "country": "United States",
        "address": "1901 N Towanda Ave",
        "phone": "(309) 454-9621",
        "website": "http://www.golfironwood.org",
        "postcode": "61761",
        "defaultAffiliationTypeId": 23966,
        "location": {
          "lat": 40.539059,
          "lon": -88.963359
        },
        "courses": [
          {
            "id": 6727,
            "name": "Ironwood",
            "holes": 18,
            "uuid": "d7b24330-8348-44a0-93a8-4f8acdb52867"
          }
        ]
      }
    },
    {
      "input": "Kokopelli Golf Club",
      "city": "Gilbert",
      "slug": "kokopelli-golf-course",
      "status": "wrong_state",
      "club": {
        "uuid": "8099488b-1641-4855-a6de-d9c6bd902304",
        "id": 5805,
        "name": "Kokopelli Golf Club",
        "slug": "kokopelli-golf-course-illinois",
        "city": "Marion",
        "province": "Illinois",
        "country": "United States",
        "address": "P.O. Box 100",
        "phone": "(618) 997-5656",
        "website": "http://www.kokopelligolf.com",
        "postcode": "62959",
        "defaultAffiliationTypeId": 24042,
        "location": {
          "lat": 37.730788,
          "lon": -88.94193
        },
        "courses": [
          {
            "id": 6748,
            "name": "Kokopelli Golf Club",
            "holes": 18,
            "uuid": "78f3bec9-21ae-4b87-87f4-f7909ed54f4e"
          }
        ]
      }
    },
    {
      "input": "Las Colinas Golf Club",
      "city": "Queen Creek",
      "slug": "las-colinas-golf-course",
      "status": "listed_only",
      "club": {
        "uuid": "a1ff28f8-b171-400f-be5f-cef9c060044b",
        "id": 2275,
        "name": "Las Colinas Golf Course",
        "slug": "las-colinas-golf-course",
        "city": "Queen Creek",
        "province": "Arizona",
        "country": "United States",
        "address": "21515 E Village Loop Rd",
        "phone": "(480) 987-3633",
        "website": "http://www.lascolinasgolfclub.com",
        "postcode": "85242",
        "defaultAffiliationTypeId": 9922,
        "location": {
          "lat": 33.2439065,
          "lon": -111.6187814
        },
        "courses": [
          {
            "id": 2618,
            "name": "Las Colinas",
            "holes": 18,
            "uuid": "f1aa8351-078d-4ca5-ad5e-b83223b0d7e2"
          }
        ]
      },
      "datesChecked": [
        "2026-02-18",
        "2026-02-14",
        "2026-02-21"
      ],
      "teeTimes": [
        0,
        0,
        0
      ]
    },
    {
      "input": "Las Sendas Golf Club",
      "city": "Mesa",
      "slug": "las-sendas-golf-club",
      "status": "listed_only",
      "club": {
        "uuid": "7c83c28a-aa02-40e7-852c-8518e1ae34ec",
        "id": 2276,
        "name": "Las Sendas Golf Club",
        "slug": "las-sendas-golf-club",
        "city": "Mesa",
        "province": "Arizona",
        "country": "United States",
        "address": "7555 E Eagle Crest Dr",
        "phone": "(480) 396-4000",
        "website": "http://www.lassendas.com",
        "postcode": "85207",
        "defaultAffiliationTypeId": 9926,
        "location": {
          "lat": 33.491808,
          "lon": -111.674049
        },
        "courses": [
          {
            "id": 2619,
            "name": "Las Sendas",
            "holes": 18,
            "uuid": "d5e3dd95-a4d2-47d1-b9b0-bc2195500d78"
          }
        ]
      },
      "datesChecked": [
        "2026-02-18",
        "2026-02-14",
        "2026-02-21"
      ],
      "teeTimes": [
        0,
        0,
        0
      ]
    },
    {
      "input": "Legacy Golf Club",
      "city": "Phoenix",
      "slug": "legacy-golf-club",
      "status": "wrong_state",
      "club": {
        "uuid": "ae841c8f-4a33-41ef-abc4-ef88d00a586e",
        "id": 5257,
        "name": "Legacy Golf Club",
        "slug": "legacy-golf-club",
        "city": "Norwalk",
        "province": "Iowa",
        "country": "United States",
        "address": "400 Legacy Pkwy",
        "phone": "(515) 287-7885",
        "website": "http://www.thelegacygolflcub.com",
        "postcode": "50211",
        "defaultAffiliationTypeId": 21850,
        "location": {
          "lat": 41.4888613,
          "lon": -93.6832135
        },
        "courses": [
          {
            "id": 6167,
            "name": "Legacy",
            "holes": 18,
            "uuid": "9f1cf1ae-951d-4205-b1e9-0e874757b5af"
          }
        ]
      }
    },
    {
      "input": "Legend Trail Golf Club",
      "city": "Scottsdale",
      "slug": "legend-trail-golf-club",
      "status": "listed_only",
      "club": {
        "uuid": "70c301dc-a8a6-4dd0-bbd0-68e3235df394",
        "id": 2278,
        "name": "Legend Trail Golf Club",
        "slug": "legend-trail-golf-club",
        "city": "Scottsdale",
        "province": "Arizona",
        "country": "United States",
        "address": "9462 Legendery Ln",
        "phone": "(480) 488-7434",
        "website": "http://www.legendtrailgc.com",
        "postcode": "85262",
        "defaultAffiliationTypeId": 9934,
        "location": {
          "lat": 33.8001451,
          "lon": -111.8746511
        },
        "courses": [
          {
            "id": 2620,
            "name": "Legend Trail",
            "holes": 18,
            "uuid": "9298a3fc-9ddc-4857-ae57-7fd8ce34086b"
          }
        ]
      },
      "datesChecked": [
        "2026-02-18",
        "2026-02-14",
        "2026-02-21"
      ],
      "teeTimes": [
        0,
        0,
        0
      ]
    },
    {
      "input": "Leisure World Golf Course",
      "city": "Mesa",
      "slug": "leisure-world-golf-club",
      "status": "wrong_state",
      "club": {
        "uuid": "38232e82-7e09-40af-a7cb-3ccebf859dc4",
        "id": 7565,
        "name": "Leisure World Golf Club",
        "slug": "leisure-world-golf-club",
        "city": "Silver Spring",
        "province": "Maryland",
        "country": "United States",
        "address": "3701 Rossmoor Blvd",
        "phone": "(301) 598-1570",
        "website": "",
        "postcode": "20906",
        "defaultAffiliationTypeId": 31082,
        "location": {
          "lat": 39.101161,
          "lon": -77.074249
        },
        "courses": [
          {
            "id": 8626,
            "name": "Leisure World",
            "holes": 18,
            "uuid": "b4d7448f-a0de-44bf-9473-c8490900c248"
          }
        ]
      }
    },
    {
      "input": "Lone Tree Golf Club",
      "city": "Chandler",
      "slug": "lone-tree-golf-club",
      "status": "listed_only",
      "club": {
        "uuid": "e6c2f445-ef48-4420-bbaa-28b31964b21f",
        "id": 2282,
        "name": "Lone Tree Golf Club",
        "slug": "lone-tree-golf-club",
        "city": "Chandler",
        "province": "Arizona",
        "country": "United States",
        "address": "6262 S Mountain Blvd",
        "phone": "(480) 219-0830",
        "website": "http://www.lonetreegolf18.com",
        "postcode": "85249",
        "defaultAffiliationTypeId": 9950,
        "location": {
          "lat": 33.216367,
          "lon": -111.783495
        },
        "courses": [
          {
            "id": 2627,
            "name": "Lone Tree",
            "holes": 18,
            "uuid": "de321f0a-1ff2-400e-bc88-75d7d9d2ed3a"
          }
        ]
      },
      "datesChecked": [
        "2026-02-18",
        "2026-02-14",
        "2026-02-21"
      ],
      "teeTimes": [
        0,
        0,
        0
      ]
    },
    {
      "input": "Longbow Golf Club",
      "city": "Mesa",
      "slug": "longbow-golf-club",
      "status": "listed_only",
      "club": {
        "uuid": "c912f224-425a-46b6-9234-88c13005bfe4",
        "id": 2283,
        "name": "Longbow Golf Club",
        "slug": "longbow-golf-club",
        "city": "Mesa",
        "province": "Arizona",
        "country": "United States",
        "address": "5601 E Longbow Pkwy",
        "phone": "(480) 807-5400",
        "website": "http://www.longbowgolf.com",
        "postcode": "85215",
        "defaultAffiliationTypeId": 9954,
        "location": {
          "lat": 33.466341,
          "lon": -111.714046
        },
        "courses": [
          {
            "id": 2628,
            "name": "Longbow",
            "holes": 18,
            "uuid": "4436f085-30bf-4f2c-a643-fb2e2c9dcb36"
          }
        ]
      },
      "datesChecked": [
        "2026-02-18",
        "2026-02-14",
        "2026-02-21"
      ],
      "teeTimes": [
        0,
        0,
        0
      ]
    },
    {
      "input": "Lookout Mountain Golf Club",
      "city": "Phoenix",
      "slug": "lookout-mountain-golf-club",
      "status": "wrong_state",
      "club": {
        "uuid": "b084d3ff-8de9-4852-8b56-ac322eba8ab9",
        "id": 4849,
        "name": "Lookout Mountain Golf Club",
        "slug": "lookout-mountain-golf-club",
        "city": "Lookout Mountain",
        "province": "Georgia",
        "country": "United States",
        "address": "1730 Woodnymph Trl",
        "phone": "(706) 820-1169",
        "website": "http://lookoutmountaingolfclub.com",
        "postcode": "30750",
        "defaultAffiliationTypeId": 20218,
        "location": {
          "lat": 34.961677,
          "lon": -85.356777
        },
        "courses": [
          {
            "id": 5710,
            "name": "Lookout Mountain",
            "holes": 18,
            "uuid": "e6108efe-b366-496d-9379-dc800965fde3"
          }
        ]
      }
    },
    {
      "input": "Los Caballeros Golf Club",
      "city": "Wickenburg",
      "slug": "",
      "status": "miss"
    },
    {
      "input": "McCormick Ranch Golf Club",
      "city": "Scottsdale",
      "slug": "mccormick-ranch-golf-club",
      "status": "listed_only",
      "club": {
        "uuid": "2581929e-0f6c-4c58-87be-92065dd911e8",
        "id": 2286,
        "name": "McCormick Ranch Golf Club",
        "slug": "mccormick-ranch-golf-club",
        "city": "Scottsdale",
        "province": "Arizona",
        "country": "United States",
        "address": "7505 E. McCormick Parkway",
        "phone": "(480) 948-0260",
        "website": "http://www.mccormickranchgolf.com",
        "postcode": "85258",
        "defaultAffiliationTypeId": 9966,
        "location": {
          "lat": 33.549872,
          "lon": -111.920428
        },
        "courses": [
          {
            "id": 2632,
            "name": "Pine",
            "holes": 18,
            "uuid": "1de29680-3a0d-4296-950b-2c7550e8f334"
          },
          {
            "id": 2631,
            "name": "Palm",
            "holes": 18,
            "uuid": "2575819b-3b41-436b-b35d-5ac770ca3f45"
          }
        ]
      },
      "datesChecked": [
        "2026-02-18",
        "2026-02-14",
        "2026-02-21"
      ],
      "teeTimes": [
        0,
        0,
        0
      ]
    },
    {
      "input": "McDowell Mountain Golf Club",
      "city": "Scottsdale",
      "slug": "mcdowell-mountain-golf-club",
      "status": "listed_only",
      "club": {
        "uuid": "b245a5e1-ca8f-41cf-a7e5-142d20a9d5eb",
        "id": 2287,
        "name": "McDowell Mountain Golf Club",
        "slug": "mcdowell-mountain-golf-club",
        "city": "Scottsdale",
        "province": "Arizona",
        "country": "United States",
        "address": "10690 E Sheena Dr",
        "phone": "(480) 502-8200",
        "website": "http://www.mcdowellmountaingc.com",
        "postcode": "85255",
        "defaultAffiliationTypeId": 9970,
        "location": {
          "lat": 33.6165607,
          "lon": -111.85122
        },
        "courses": [
          {
            "id": 2633,
            "name": "McDowell Mountain",
            "holes": 18,
            "uuid": "c8ff7616-1674-48af-8a5c-12a066364a9d"
          }
        ]
      },
      "datesChecked": [
        "2026-02-18",
        "2026-02-14",
        "2026-02-21"
      ],
      "teeTimes": [
        0,
        0,
        0
      ]
    },
    {
      "input": "Mountain Brook Golf Club",
      "city": "Gold Canyon",
      "slug": "mountain-brook-golf-club",
      "status": "listed_only",
      "club": {
        "uuid": "debd2715-09a0-46bb-953a-352e969a68b2",
        "id": 2296,
        "name": "Mountain Brook Golf Club",
        "slug": "mountain-brook-golf-club",
        "city": "Gold Canyon",
        "province": "Arizona",
        "country": "United States",
        "address": "5783 S MountainBrook Dr",
        "phone": "(480) 671-1000",
        "website": "http://www.mountainbrookgolf.com",
        "postcode": "85219",
        "defaultAffiliationTypeId": 10006,
        "location": {
          "lat": 33.365057,
          "lon": -111.460714
        },
        "courses": [
          {
            "id": 2642,
            "name": "Mountain Brook",
            "holes": 18,
            "uuid": "4588d08c-79a3-4e88-ae44-4af090abde57"
          }
        ]
      },
      "datesChecked": [
        "2026-02-18",
        "2026-02-14",
        "2026-02-21"
      ],
      "teeTimes": [
        0,
        0,
        0
      ]
    },
    {
      "input": "Ocotillo Golf Club",
      "city": "Chandler",
      "slug": "",
      "status": "miss"
    },
    {
      "input": "Orange Tree Golf Course",
      "city": "Scottsdale",
      "slug": "orange-tree-golf-club",
      "status": "wrong_state",
      "club": {
        "uuid": "e09a33c7-c8e0-4ee1-8294-e0bb73718421",
        "id": 4189,
        "name": "Orange Tree Golf Club",
        "slug": "orange-tree-golf-club",
        "city": "Orlando",
        "province": "Florida",
        "country": "United States",
        "address": "7540 Woodgreen Drive",
        "phone": "(407) 351-2521",
        "website": "http://www.orangetreegolfclub.com",
        "postcode": "32819",
        "defaultAffiliationTypeId": 17578,
        "location": {
          "lat": 28.46873,
          "lon": -81.485463
        },
        "courses": [
          {
            "id": 4880,
            "name": "Orange Tree",
            "holes": 18,
            "uuid": "42a8fa50-10f4-4670-9110-b28ad3cf1c12"
          }
        ]
      }
    },
    {
      "input": "Painted Mountain Golf Resort",
      "city": "Mesa",
      "slug": "painted-mountain-golf-resort",
      "status": "listed_only",
      "club": {
        "uuid": "5e81fc87-92b7-4747-8562-be8e2f4f46d9",
        "id": 2305,
        "name": "Painted Mountain Golf Resort ",
        "slug": "painted-mountain-golf-resort",
        "city": "Mesa",
        "province": "Arizona",
        "country": "United States",
        "address": "6210 E McKellips Rd",
        "phone": "(480)832-0156",
        "website": "http://www.paintedmountaingolf.com",
        "postcode": "85215",
        "defaultAffiliationTypeId": 10042,
        "location": {
          "lat": 33.452534,
          "lon": -111.696619
        },
        "courses": [
          {
            "id": 2655,
            "name": "Championship ",
            "holes": 18,
            "uuid": "e161dc83-7e08-4eb6-adc1-edf866c47584"
          },
          {
            "id": 2654,
            "name": "Executive ",
            "holes": 9,
            "uuid": "3d0ee2a6-eb79-4dd4-870d-1aaac489fb92"
          }
        ]
      },
      "datesChecked": [
        "2026-02-18",
        "2026-02-14",
        "2026-02-21"
      ],
      "teeTimes": [
        0,
        0,
        0
      ]
    },
    {
      "input": "Palm Valley Golf Club",
      "city": "Goodyear",
      "slug": "palm-valley-golf-club",
      "status": "wrong_state",
      "club": {
        "uuid": "f39275a0-138c-4e70-b3b2-e9331438a695",
        "id": 10233,
        "name": "Palm Valley Golf Club",
        "slug": "palm-valley-golf-club-nevada",
        "city": "Las Vegas",
        "province": "Nevada",
        "country": "United States",
        "address": "9201 Del Webb Blvd # B",
        "phone": "(702) 363-4373",
        "website": "http://www.golfsummerlin.com",
        "postcode": "89134",
        "defaultAffiliationTypeId": 41754,
        "location": {
          "lat": 36.211649,
          "lon": -115.295065
        },
        "courses": [
          {
            "id": 11754,
            "name": "Sun City Summerlin",
            "holes": 18,
            "uuid": "def35901-b66a-4475-b0dc-78caf7693ba9"
          }
        ]
      }
    },
    {
      "input": "Paradise Valley Golf Course",
      "city": "Phoenix",
      "slug": "paradise-valley-golf-course",
      "status": "wrong_state",
      "club": {
        "uuid": "1b4db1a4-702a-40f2-9fdb-205b4b52c96a",
        "id": 2921,
        "name": "Paradise Valley Golf Course",
        "slug": "paradise-valley-golf-course",
        "city": "Fairfield",
        "province": "California",
        "country": "United States",
        "address": "3950 Paradise Valley Dr",
        "phone": "(707) 429-4653",
        "website": "http://www.fairfieldgolf.com",
        "postcode": "94533",
        "defaultAffiliationTypeId": 12506,
        "location": {
          "lat": 38.295411,
          "lon": -122.018933
        },
        "courses": [
          {
            "id": 3314,
            "name": "Paradise Valley",
            "holes": 18,
            "uuid": "3dfba4a8-72d7-4138-b259-4b1195ded3ed"
          },
          {
            "id": 21767,
            "name": "Back 9 (First 1.5 Hours of Daylight)",
            "holes": 9,
            "uuid": "17144d64-b279-4f9a-b43b-0712c5f8f296"
          }
        ]
      }
    },
    {
      "input": "Pueblo El Mirage Golf Course",
      "city": "El Mirage",
      "slug": "",
      "status": "miss"
    },
    {
      "input": "Quintero Golf Club",
      "city": "Peoria",
      "slug": "quintero-golf-club",
      "status": "listed_only",
      "club": {
        "uuid": "0ff02120-0e47-408a-a207-420bf8b4b1e3",
        "id": 2338,
        "name": "Quintero Golf Club ",
        "slug": "quintero-golf-club",
        "city": "Peoria",
        "province": "Arizona",
        "country": "United States",
        "address": "16752 W State Rte 74",
        "phone": "(928)501-1500",
        "website": "http://www.quinterogolf.com",
        "postcode": "85383",
        "defaultAffiliationTypeId": 10174,
        "location": {
          "lat": 33.839784,
          "lon": -112.423828
        },
        "courses": [
          {
            "id": 2689,
            "name": "Founders ",
            "holes": 18,
            "uuid": "ca70bf63-30d2-49b9-83f1-1ce9013965f1"
          }
        ]
      },
      "datesChecked": [
        "2026-02-18",
        "2026-02-14",
        "2026-02-21"
      ],
      "teeTimes": [
        0,
        0,
        0
      ]
    },
    {
      "input": "Rancho Manana Golf Club",
      "city": "Cave Creek",
      "slug": "rancho-manana-golf-club",
      "status": "listed_only",
      "club": {
        "uuid": "e613666d-92b7-41fa-a98a-21dde189b772",
        "id": 2341,
        "name": "Rancho Manana Golf Club",
        "slug": "rancho-manana-golf-club",
        "city": "Cave Creek",
        "province": "Arizona",
        "country": "United States",
        "address": "5734 E Rancho Manana Blvd",
        "phone": "(480) 488-0398",
        "website": "http://www.ranchomanana.com",
        "postcode": "85331",
        "defaultAffiliationTypeId": 10186,
        "location": {
          "lat": 33.832175,
          "lon": -111.958408
        },
        "courses": [
          {
            "id": 2692,
            "name": "Rancho Manana",
            "holes": 18,
            "uuid": "9c5ceefe-0c36-4326-a70d-007386a2a8fe"
          }
        ]
      },
      "datesChecked": [
        "2026-02-18",
        "2026-02-14",
        "2026-02-21"
      ],
      "teeTimes": [
        0,
        0,
        0
      ]
    },
    {
      "input": "Raven Golf Club Phoenix",
      "city": "Phoenix",
      "slug": "",
      "status": "miss"
    },
    {
      "input": "Red Mountain Ranch Country Club",
      "city": "Mesa",
      "slug": "red-mountain-ranch-country-club",
      "status": "listed_only",
      "club": {
        "uuid": "64ed0d0a-6528-4a1c-8ab2-17dea512725f",
        "id": 2344,
        "name": "Red Mountain Ranch Country Club",
        "slug": "red-mountain-ranch-country-club",
        "city": "Mesa",
        "province": "Arizona",
        "country": "United States",
        "address": "6425 E Teton",
        "phone": "(480) 981-6501",
        "website": "http://www.rmrcc.com",
        "postcode": "85215",
        "defaultAffiliationTypeId": 10198,
        "location": {
          "lat": 33.488292,
          "lon": -111.69099
        },
        "courses": [
          {
            "id": 2695,
            "name": "Red Mountain Ranch",
            "holes": 18,
            "uuid": "b194761b-b640-4434-a209-45a1d9f6fbed"
          }
        ]
      },
      "datesChecked": [
        "2026-02-18",
        "2026-02-14",
        "2026-02-21"
      ],
      "teeTimes": [
        0,
        0,
        0
      ]
    },
    {
      "input": "Riverview Golf Course",
      "city": "Mesa",
      "slug": "riverview-golf-course",
      "status": "wrong_state",
      "club": {
        "uuid": "7fcdac6f-61af-4dc2-bb79-f3953f94bdb9",
        "id": 3403,
        "name": "Riverview Golf Course",
        "slug": "riverview-golf-course-colorado",
        "city": "Sterling",
        "province": "Colorado",
        "country": "United States",
        "address": "13064 County Rd 370",
        "phone": "(970) 522-3035",
        "website": "http://riverview.golf/",
        "postcode": "80751",
        "defaultAffiliationTypeId": 14434,
        "location": {
          "lat": 40.619379,
          "lon": -103.181413
        },
        "courses": [
          {
            "id": 3857,
            "name": "Riverview",
            "holes": 18,
            "uuid": "a7901d91-be02-48e3-8b9c-a6d475bcaec0"
          }
        ]
      }
    },
    {
      "input": "Royal Palms Golf Course",
      "city": "Mesa",
      "slug": "royal-palms-golf-course",
      "status": "listed_only",
      "club": {
        "uuid": "9b1efe5f-5aca-4438-a4c8-c03e8a9532a5",
        "id": 2355,
        "name": "Royal Palms Golf Course",
        "slug": "royal-palms-golf-course",
        "city": "Mesa",
        "province": "Arizona",
        "country": "United States",
        "address": "1415 E McKellips Rd",
        "phone": "(480) 964-1709",
        "website": "http://www.royalpalmsgolfcourse.com",
        "postcode": "85203",
        "defaultAffiliationTypeId": 10242,
        "location": {
          "lat": 33.45154,
          "lon": -111.800982
        },
        "courses": [
          {
            "id": 2706,
            "name": "Royal Palms",
            "holes": 9,
            "uuid": "90be081a-1092-4914-bbd7-1e2dfbe9f66e"
          }
        ]
      },
      "datesChecked": [
        "2026-02-18",
        "2026-02-14",
        "2026-02-21"
      ],
      "teeTimes": [
        0,
        0,
        0
      ]
    },
    {
      "input": "San Marcos Golf Course",
      "city": "Chandler",
      "slug": "",
      "status": "miss"
    },
    {
      "input": "Scottsdale Silverado Golf Club",
      "city": "Scottsdale",
      "slug": "scottsdale-silverado-golf-club",
      "status": "listed_only",
      "club": {
        "uuid": "64bc086c-6637-4e94-a1ad-f5cb8c8b1f09",
        "id": 2363,
        "name": "Scottsdale Silverado Golf Club",
        "slug": "scottsdale-silverado-golf-club",
        "city": "Scottsdale",
        "province": "Arizona",
        "country": "United States",
        "address": "7605 East Indian Bend",
        "phone": "(480) 778-0100",
        "website": "http://www.1035silveradogolfclub.com",
        "postcode": "85250",
        "defaultAffiliationTypeId": 10274,
        "location": {
          "lat": 33.538558,
          "lon": -111.915137
        },
        "courses": [
          {
            "id": 2715,
            "name": "Scottsdale Silverado",
            "holes": 18,
            "uuid": "f16182c8-8636-4712-b869-41b8b0c8b518"
          }
        ]
      },
      "datesChecked": [
        "2026-02-18",
        "2026-02-14",
        "2026-02-21"
      ],
      "teeTimes": [
        0,
        0,
        0
      ]
    },
    {
      "input": "Shalimar Golf Club",
      "city": "Tempe",
      "slug": "",
      "status": "miss"
    },
    {
      "input": "Starfire Golf Club",
      "city": "Scottsdale",
      "slug": "starfire-golf-club",
      "status": "listed_only",
      "club": {
        "uuid": "65d9fc98-b3a3-4d7a-9b65-b0738b50295d",
        "id": 2375,
        "name": "Starfire Golf Club",
        "slug": "starfire-golf-club",
        "city": "Scottsdale",
        "province": "Arizona",
        "country": "United States",
        "address": "11500 N. Hayden",
        "phone": "480-948-6000",
        "website": "http://www.starfiregolfclub.com",
        "postcode": "85260",
        "defaultAffiliationTypeId": 10322,
        "location": {
          "lat": 33.590474,
          "lon": -111.90942
        },
        "courses": [
          {
            "id": 2732,
            "name": "Hawk/Squire",
            "holes": 18,
            "uuid": "418d68e1-ca64-4609-b4c8-5490da295183"
          },
          {
            "id": 2731,
            "name": "Squire/King",
            "holes": 18,
            "uuid": "3b4ebebe-9970-4c00-bf74-8c4cee7496a9"
          },
          {
            "id": 2730,
            "name": "Hawk/King",
            "holes": 18,
            "uuid": "062e1864-5746-4157-a165-efe14f5c23ba"
          },
          {
            "id": 2729,
            "name": "The Squire",
            "holes": 9,
            "uuid": "c5d8727b-206d-4557-a18d-e01d7f7249e3"
          },
          {
            "id": 2728,
            "name": "The Hawk",
            "holes": 9,
            "uuid": "33b0b210-e778-4124-93b3-ee916a4c1fa7"
          },
          {
            "id": 2727,
            "name": "The King",
            "holes": 9,
            "uuid": "6bf218d6-ad2f-4da0-8749-4e1dc0da004c"
          }
        ]
      },
      "datesChecked": [
        "2026-02-18",
        "2026-02-14",
        "2026-02-21"
      ],
      "teeTimes": [
        0,
        0,
        0
      ]
    },
    {
      "input": "Stonecreek Golf Club",
      "city": "Phoenix",
      "slug": "stonecreek-golf-club",
      "status": "listed_only",
      "club": {
        "uuid": "f7d5b590-97af-4d6a-93e8-4889d82da0c7",
        "id": 2379,
        "name": "Stonecreek Golf Club",
        "slug": "stonecreek-golf-club",
        "city": "Phoenix",
        "province": "Arizona",
        "country": "United States",
        "address": "4435 E. Paradise Village Parkway South ",
        "phone": "(602) 953-9111",
        "website": "http://www.stonecreekgc.com",
        "postcode": "85032",
        "defaultAffiliationTypeId": 10338,
        "location": {
          "lat": 33.595649,
          "lon": -111.984619
        },
        "courses": []
      }
    },
    {
      "input": "Sundance Golf Club",
      "city": "Buckeye",
      "slug": "sundance-golf-club",
      "status": "wrong_state",
      "club": {
        "uuid": "a4f0c880-e1fb-41ed-875a-46e4dfca3a66",
        "id": 15495,
        "name": "Sundance Golf Club",
        "slug": "sundance-golf-club-wyoming",
        "city": "Sundance",
        "province": "Wyoming",
        "country": "United States",
        "address": "E Hwy 14",
        "phone": "(307) 283-1191",
        "website": "",
        "postcode": "82729",
        "defaultAffiliationTypeId": 62802,
        "location": {
          "lat": 44.4680238,
          "lon": -104.2565256
        },
        "courses": [
          {
            "id": 17794,
            "name": "Sundance",
            "holes": 9,
            "uuid": "4910307b-0ad4-4892-b3ff-41ff8d7cee6b"
          }
        ]
      }
    },
    {
      "input": "SunRidge Canyon Golf Club",
      "city": "Fountain Hills",
      "slug": "sunridge-canyon-golf-club",
      "status": "listed_only",
      "club": {
        "uuid": "31f7c16a-708d-426c-898e-8acfce76d9c0",
        "id": 2389,
        "name": "SunRidge Canyon Golf Club",
        "slug": "sunridge-canyon-golf-club",
        "city": "Fountain Hills",
        "province": "Arizona",
        "country": "United States",
        "address": "13100 N SunRidge Dr",
        "phone": "(480) 837-5100",
        "website": "http://www.sunridgegolf.com",
        "postcode": "85268",
        "defaultAffiliationTypeId": 10378,
        "location": {
          "lat": 33.606625,
          "lon": -111.757691
        },
        "courses": [
          {
            "id": 2747,
            "name": "SunRidge Canyon",
            "holes": 18,
            "uuid": "df8a4858-6670-47a3-b560-683a7179b7f6"
          }
        ]
      },
      "datesChecked": [
        "2026-02-18",
        "2026-02-14",
        "2026-02-21"
      ],
      "teeTimes": [
        0,
        0,
        0
      ]
    },
    {
      "input": "Sunland Springs Village Golf",
      "city": "Mesa",
      "slug": "",
      "status": "miss"
    },
    {
      "input": "Superstition Springs Golf Club",
      "city": "Mesa",
      "slug": "superstition-springs-golf-club",
      "status": "listed_only",
      "club": {
        "uuid": "7969cb41-59cf-47ad-a037-51236f9541bd",
        "id": 2391,
        "name": "Superstition Springs Golf Club",
        "slug": "superstition-springs-golf-club",
        "city": "Mesa",
        "province": "Arizona",
        "country": "United States",
        "address": "6542 E Baseline Rd",
        "phone": "(480) 985-5622",
        "website": "http://www.superstitionspringsgc.com",
        "postcode": "85206",
        "defaultAffiliationTypeId": 10386,
        "location": {
          "lat": 33.37935,
          "lon": -111.694105
        },
        "courses": [
          {
            "id": 2750,
            "name": "Superstition Springs",
            "holes": 18,
            "uuid": "b08f1213-ceb9-4f58-90b2-45d12c6fb68a"
          }
        ]
      },
      "datesChecked": [
        "2026-02-18",
        "2026-02-14",
        "2026-02-21"
      ],
      "teeTimes": [
        0,
        0,
        0
      ]
    },
    {
      "input": "Talking Stick Golf Club",
      "city": "Scottsdale",
      "slug": "talking-stick-golf-club",
      "status": "listed_only",
      "club": {
        "uuid": "2294d12a-0fa7-4d62-a4b3-518d768d7bbc",
        "id": 2393,
        "name": "Talking Stick Golf Club",
        "slug": "talking-stick-golf-club",
        "city": "Scottsdale",
        "province": "Arizona",
        "country": "United States",
        "address": "9998 East Indian Bend",
        "phone": "480.860.2221",
        "website": "http://www.talkingstickgolfclub.com",
        "postcode": "85256",
        "defaultAffiliationTypeId": 10394,
        "location": {
          "lat": 33.539874,
          "lon": -111.870432
        },
        "courses": [
          {
            "id": 2753,
            "name": "South",
            "holes": 18,
            "uuid": "b3ed8166-2d09-446b-84f2-d3e68b76864b"
          },
          {
            "id": 2752,
            "name": "North",
            "holes": 18,
            "uuid": "774764ce-ffcc-41f6-afa4-6ec99b767f2f"
          }
        ]
      },
      "datesChecked": [
        "2026-02-18",
        "2026-02-14",
        "2026-02-21"
      ],
      "teeTimes": [
        0,
        0,
        0
      ]
    },
    {
      "input": "Tatum Ranch Golf Club",
      "city": "Cave Creek",
      "slug": "tatum-ranch-golf-club",
      "status": "listed_only",
      "club": {
        "uuid": "6e7b3350-4a60-4060-bc11-fa394bb59019",
        "id": 2394,
        "name": "Tatum Ranch Golf Club",
        "slug": "tatum-ranch-golf-club",
        "city": "Cave Creek",
        "province": "Arizona",
        "country": "United States",
        "address": "29888 N Tatum Ranch Dr",
        "phone": "(480) 585-4909",
        "website": "http://www.tatumranchgc.com",
        "postcode": "85331",
        "defaultAffiliationTypeId": 10398,
        "location": {
          "lat": 33.756312,
          "lon": -111.985774
        },
        "courses": [
          {
            "id": 2754,
            "name": "Tatum Ranch",
            "holes": 18,
            "uuid": "e5358f0a-56b5-4bd0-b0ed-d94ea92f62f8"
          }
        ]
      },
      "datesChecked": [
        "2026-02-18",
        "2026-02-14",
        "2026-02-21"
      ],
      "teeTimes": [
        0,
        0,
        0
      ]
    },
    {
      "input": "The Phoenician Golf Club",
      "city": "Scottsdale",
      "slug": "",
      "status": "miss"
    },
    {
      "input": "TPC Scottsdale",
      "city": "Scottsdale",
      "slug": "",
      "status": "miss"
    },
    {
      "input": "Tres Rios Golf Course",
      "city": "Goodyear",
      "slug": "",
      "status": "miss"
    },
    {
      "input": "Trilogy Golf Club at Vistancia",
      "city": "Peoria",
      "slug": "",
      "status": "miss"
    },
    {
      "input": "Troon North Golf Club",
      "city": "Scottsdale",
      "slug": "troon-north-golf-club",
      "status": "listed_only",
      "club": {
        "uuid": "e1e5cdc4-3988-4932-b951-89dd9af6605c",
        "id": 2430,
        "name": "Troon North Golf Club",
        "slug": "troon-north-golf-club",
        "city": "Scottsdale",
        "province": "Arizona",
        "country": "United States",
        "address": "10320 E. Dynamite Blvd.",
        "phone": "480.585.5300",
        "website": "http://www.troonnorthgolf.com",
        "postcode": "85262",
        "defaultAffiliationTypeId": 10542,
        "location": {
          "lat": 33.745793,
          "lon": -111.858475
        },
        "courses": [
          {
            "id": 2799,
            "name": "Monument",
            "holes": 18,
            "uuid": "5b0d88ac-9695-45a0-a736-638156dc139d"
          },
          {
            "id": 2801,
            "name": "Monument Express",
            "holes": 9,
            "uuid": "6c9b3ff9-1bbf-40ab-b033-6461163fe3a1"
          },
          {
            "id": 2800,
            "name": "Pinnacle",
            "holes": 18,
            "uuid": "bdad21be-d762-4c90-9239-1025ab350fd0"
          }
        ]
      },
      "datesChecked": [
        "2026-02-18",
        "2026-02-14",
        "2026-02-21"
      ],
      "teeTimes": [
        0,
        0,
        0
      ]
    },
    {
      "input": "Verde River Golf Club",
      "city": "Rio Verde",
      "slug": "",
      "status": "miss"
    },
    {
      "input": "Verrado Golf Club",
      "city": "Buckeye",
      "slug": "",
      "status": "miss"
    },
    {
      "input": "Viewpoint Golf Resort",
      "city": "Mesa",
      "slug": "viewpoint-golf-resort",
      "status": "listed_only",
      "club": {
        "uuid": "6c74c583-8c24-4802-9232-8ac3ab3566d7",
        "id": 2441,
        "name": "Viewpoint Golf Resort ",
        "slug": "viewpoint-golf-resort",
        "city": "Mesa",
        "province": "Arizona",
        "country": "United States",
        "address": "650 N Hawes Rd",
        "phone": "(480)373-8715",
        "website": "http://www.viewpointgolfresort.com",
        "postcode": "85207",
        "defaultAffiliationTypeId": 10586,
        "location": {
          "lat": 33.426749,
          "lon": -111.650566
        },
        "courses": [
          {
            "id": 2812,
            "name": "Championship",
            "holes": 18,
            "uuid": "6550dc47-8de3-461c-b58a-ec2d1d76babd"
          }
        ]
      },
      "datesChecked": [
        "2026-02-18",
        "2026-02-14",
        "2026-02-21"
      ],
      "teeTimes": [
        0,
        0,
        0
      ]
    },
    {
      "input": "We-Ko-Pa Golf Club",
      "city": "Fort McDowell",
      "slug": "we-ko-pa-golf-club",
      "status": "listed_only",
      "club": {
        "uuid": "eb340bae-837f-4a6c-b07e-e47f9777b6c5",
        "id": 2446,
        "name": "We Ko Pa Golf Club ",
        "slug": "we-ko-pa-golf-club",
        "city": "Fort McDowell",
        "province": "Arizona",
        "country": "United States",
        "address": "18200 E Toh Vee Circle",
        "phone": "(480) 836-9000",
        "website": "http://www.wekopa.com",
        "postcode": "85264",
        "defaultAffiliationTypeId": 10606,
        "location": {
          "lat": 33.5782005,
          "lon": -111.6858415
        },
        "courses": [
          {
            "id": 2818,
            "name": "Seguaro",
            "holes": 18,
            "uuid": "2e5476e3-c1f1-4573-834b-cbd7acbc58ab"
          },
          {
            "id": 2817,
            "name": "Cholla",
            "holes": 18,
            "uuid": "2a2fa311-90a7-40e7-8075-7f1cd8e3c675"
          }
        ]
      },
      "datesChecked": [
        "2026-02-18",
        "2026-02-14",
        "2026-02-21"
      ],
      "teeTimes": [
        0,
        0,
        0
      ]
    },
    {
      "input": "Westin Kierland Golf Club",
      "city": "Scottsdale",
      "slug": "westin-kierland-golf-club",
      "status": "listed_only",
      "club": {
        "uuid": "c1b1a6a6-7348-46ba-9f2c-5dbb9350f756",
        "id": 2449,
        "name": "Westin Kierland Golf Club",
        "slug": "westin-kierland-golf-club",
        "city": "Scottsdale",
        "province": "Arizona",
        "country": "United States",
        "address": "15636 Clubgate Drive",
        "phone": "480.922.9283",
        "website": "http://www.kierlandgolf.com",
        "postcode": "85254",
        "defaultAffiliationTypeId": 10618,
        "location": {
          "lat": 33.625019,
          "lon": -111.933603
        },
        "courses": [
          {
            "id": 2824,
            "name": "Acacia/Mesquite",
            "holes": 18,
            "uuid": "580bb7af-47b4-43cf-a3f2-4138786afd85"
          },
          {
            "id": 2823,
            "name": "Mesquite/Ironwood",
            "holes": 18,
            "uuid": "39ce9288-24fe-4d90-8816-beca0491ceeb"
          },
          {
            "id": 2822,
            "name": "Ironwood/Acacia",
            "holes": 18,
            "uuid": "74320cb3-1996-48b6-bc2d-f235ca22d554"
          }
        ]
      },
      "datesChecked": [
        "2026-02-18",
        "2026-02-14",
        "2026-02-21"
      ],
      "teeTimes": [
        0,
        0,
        0
      ]
    },
    {
      "input": "Westbrook Village Golf Club",
      "city": "Peoria",
      "slug": "westbrook-village-golf-club",
      "status": "listed_only",
      "club": {
        "uuid": "bd0d1747-ab20-486f-b402-45a85b31d015",
        "id": 2447,
        "name": "Westbrook Village Golf Club ",
        "slug": "westbrook-village-golf-club",
        "city": "Peoria",
        "province": "Arizona",
        "country": "United States",
        "address": "19260 N Westbrook Pkwy",
        "phone": "(623) 566-3439",
        "website": "http://www.westbrookvillagegolflub.org",
        "postcode": "85382",
        "defaultAffiliationTypeId": 10610,
        "location": {
          "lat": 33.659631,
          "lon": -112.26222
        },
        "courses": [
          {
            "id": 2820,
            "name": "Vistas",
            "holes": 18,
            "uuid": "3273c595-01c3-4f5e-8271-fefd96fc9f12"
          },
          {
            "id": 2819,
            "name": "Lakes",
            "holes": 18,
            "uuid": "b8872f07-9957-4194-ba3a-5824ce843d82"
          }
        ]
      },
      "datesChecked": [
        "2026-02-18",
        "2026-02-14",
        "2026-02-21"
      ],
      "teeTimes": [
        0,
        0,
        0
      ]
    },
    {
      "input": "Whirlwind Golf Club",
      "city": "Chandler",
      "slug": "whirlwind-golf-club",
      "status": "listed_only",
      "club": {
        "uuid": "dea0d955-9dfc-430a-a68f-b35da60d20a6",
        "id": 2450,
        "name": "Whirlwind Golf Club ",
        "slug": "whirlwind-golf-club",
        "city": "Chandler",
        "province": "Arizona",
        "country": "United States",
        "address": "5692 West North Loop Rd",
        "phone": "(480)940-1500",
        "website": "http://www.whirlwindgolf.com",
        "postcode": "85226",
        "defaultAffiliationTypeId": 10622,
        "location": {
          "lat": 33.269695,
          "lon": -111.989388
        },
        "courses": [
          {
            "id": 2826,
            "name": "Devils Claw ",
            "holes": 18,
            "uuid": "75a6df3b-dede-45bf-a7f8-973bea31e7b8"
          },
          {
            "id": 2825,
            "name": "Cats Tail ",
            "holes": 18,
            "uuid": "fd7007da-979c-498c-9007-b81e3e702ec5"
          }
        ]
      },
      "datesChecked": [
        "2026-02-18",
        "2026-02-14",
        "2026-02-21"
      ],
      "teeTimes": [
        0,
        0,
        0
      ]
    },
    {
      "input": "Wickenburg Ranch Golf Club",
      "city": "Wickenburg",
      "slug": "wickenburg-ranch-golf-course",
      "status": "listed_only",
      "club": {
        "uuid": "281666f9-789a-4a10-be44-6fec0efa7bf2",
        "id": 17369,
        "name": "Wickenburg Ranch Golf Course",
        "slug": "wickenburg-ranch-golf-course",
        "city": "Wickenburg",
        "province": "Arizona",
        "country": "United States",
        "address": "3430 Club Terrace Way",
        "phone": "855-878-1703",
        "website": "http://www.wickenburgranch.com",
        "postcode": "85390",
        "defaultAffiliationTypeId": 77491,
        "location": {
          "lat": 0,
          "lon": 0
        },
        "courses": [
          {
            "id": 19835,
            "name": "Big Wick",
            "holes": 18,
            "uuid": "a0b27af8-77b8-4949-b3d1-39b79101dcd2"
          }
        ]
      },
      "datesChecked": [
        "2026-02-18",
        "2026-02-14",
        "2026-02-21"
      ],
      "teeTimes": [
        0,
        0,
        0
      ]
    },
    {
      "input": "Wickenburg Country Club",
      "city": "Wickenburg",
      "slug": "wickenburg-country-club",
      "status": "listed_only",
      "club": {
        "uuid": "20b44be4-02c9-4025-bc03-4e546a3ba275",
        "id": 2453,
        "name": "Wickenburg Country Club",
        "slug": "wickenburg-country-club",
        "city": "Wickenburg",
        "province": "Arizona",
        "country": "United States",
        "address": "1420 Country Club Dr",
        "phone": "(928) 684-2011",
        "website": "http://www.wickenburgcountryclubgolf.com",
        "postcode": "85390-3501",
        "defaultAffiliationTypeId": 10634,
        "location": {
          "lat": 33.974286,
          "lon": -112.758672
        },
        "courses": [
          {
            "id": 2830,
            "name": "Wickenburg",
            "holes": 18,
            "uuid": "645da4c2-ea92-4522-a4d0-6077a873a364"
          }
        ]
      },
      "datesChecked": [
        "2026-02-18",
        "2026-02-14",
        "2026-02-21"
      ],
      "teeTimes": [
        0,
        0,
        0
      ]
    },
    {
      "input": "Wigwam Golf Club",
      "city": "Litchfield Park",
      "slug": "wigwam-resort",
      "status": "confirmed",
      "club": {
        "uuid": "640b7d4e-4882-417c-9b98-dcd79a933af2",
        "id": 2454,
        "name": "Wigwam Golf",
        "slug": "wigwam-resort",
        "city": "Litchfield Park",
        "province": "Arizona",
        "country": "United States",
        "address": "451 N. Old Litchfield Rd.",
        "phone": "623-856-1041",
        "website": "http://www.wigwamgolf.com",
        "postcode": "85340",
        "defaultAffiliationTypeId": 82957,
        "location": {
          "lat": 33.498932,
          "lon": -112.358062
        },
        "courses": [
          {
            "id": 2832,
            "name": "Gold ",
            "holes": 18,
            "uuid": "c69b04e1-a379-4dac-922c-c73afe60f802"
          },
          {
            "id": 2831,
            "name": "Blue",
            "holes": 18,
            "uuid": "bfb7d92a-a3cd-4628-a777-e5c24b0308db"
          },
          {
            "id": 2833,
            "name": "Red",
            "holes": 18,
            "uuid": "72412c8f-5d99-4caa-bf19-d9cef0668567"
          }
        ]
      },
      "datesChecked": [
        "2026-02-18",
        "2026-02-14",
        "2026-02-21"
      ],
      "teeTimes": [
        24,
        24,
        24
      ]
    },
    {
      "input": "Wildfire Golf Club",
      "city": "Phoenix",
      "slug": "wildfire-golf-club",
      "status": "wrong_state",
      "club": {
        "uuid": "b20586ee-82a1-4798-9636-d22c744f8968",
        "id": 11660,
        "name": "Wildfire Golf Club",
        "slug": "wildfire-golf-club-ohio",
        "city": "New Concord",
        "province": "Ohio",
        "country": "United States",
        "address": "4230 Friendship Dr",
        "phone": "(740) 826-7606",
        "website": "",
        "postcode": "43762",
        "defaultAffiliationTypeId": 47462,
        "location": {
          "lat": 40.037427,
          "lon": -81.757891
        },
        "courses": [
          {
            "id": 13371,
            "name": "Wildfire",
            "holes": 18,
            "uuid": "1a051ea3-e53c-407f-8290-a62a61c7868f"
          }
        ]
      }
    },
    {
      "input": "Alta Mesa Golf Club",
      "city": "Mesa",
      "slug": "alta-mesa-golf-club",
      "status": "listed_only",
      "club": {
        "uuid": "25be27e4-cb1b-4622-92e2-6449772b40c7",
        "id": 19219,
        "name": "Alta Mesa Golf Club",
        "slug": "alta-mesa-golf-club",
        "city": "Mesa",
        "province": "Arizona",
        "country": "United States",
        "address": "1460 N Alta Mesa Dr",
        "phone": "480-827-9411",
        "website": "https://altamesagolf.com",
        "postcode": "85205",
        "defaultAffiliationTypeId": 123953,
        "location": {
          "lat": 33.4425163,
          "lon": -111.7088786
        },
        "courses": [
          {
            "id": 23932,
            "name": "Alta Mesa",
            "holes": 18,
            "uuid": "bd798eec-eb1f-44cd-8dc4-c5d3be235087"
          }
        ]
      },
      "datesChecked": [
        "2026-02-18",
        "2026-02-14",
        "2026-02-21"
      ],
      "teeTimes": [
        0,
        0,
        0
      ]
    },
    {
      "input": "Encanterra Country Club",
      "city": "Queen Creek",
      "slug": "encanterra-country-club-arizona-queen-creek",
      "status": "listed_only",
      "club": {
        "uuid": "2a2d44ca-9a49-45d2-8569-44a19832897f",
        "id": 19296,
        "name": "Encanterra Country Club",
        "slug": "encanterra-country-club-arizona-queen-creek",
        "city": "Queen Creek",
        "province": "Arizona",
        "country": "United States",
        "address": "36460 N Encanterra Dr",
        "phone": "+14806778000",
        "website": "http://encanterra.com",
        "postcode": "85140",
        "defaultAffiliationTypeId": 127095,
        "location": {
          "lat": 33.2148342,
          "lon": -111.7521377
        },
        "courses": [
          {
            "id": 24148,
            "name": "Encanterra",
            "holes": 18,
            "uuid": "461565e9-6226-4345-a74e-681dae9f6b1c"
          }
        ]
      },
      "datesChecked": [
        "2026-02-18",
        "2026-02-14",
        "2026-02-21"
      ],
      "teeTimes": [
        0,
        0,
        0
      ]
    },
    {
      "input": "Queen Valley Golf Course",
      "city": "Queen Valley",
      "slug": "queen-valley-golf-course",
      "status": "confirmed",
      "club": {
        "uuid": "b47d44ea-432d-4b99-bd0a-e6e62c1939d1",
        "id": 2337,
        "name": "Queen Valley Golf Course",
        "slug": "queen-valley-golf-course",
        "city": "Queen Valley",
        "province": "Arizona",
        "country": "United States",
        "address": "600 N Fairway Dr",
        "phone": "(520) 463-2214",
        "website": "http://www.queenvalleygolfcourse.com",
        "postcode": "85219",
        "defaultAffiliationTypeId": 10170,
        "location": {
          "lat": 33.29943885005111,
          "lon": -111.2898166018466
        },
        "courses": [
          {
            "id": 2688,
            "name": "Queen Valley",
            "holes": 18,
            "uuid": "713fd280-82db-448b-bafe-aa75ac14a445"
          }
        ]
      },
      "datesChecked": [
        "2026-02-18",
        "2026-02-14",
        "2026-02-21"
      ],
      "teeTimes": [
        13,
        24,
        24
      ]
    },
    {
      "input": "Springfield Golf Resort",
      "city": "Chandler",
      "slug": "springfield-golf-resort",
      "status": "listed_only",
      "club": {
        "uuid": "a02b2283-2b9d-4487-bddd-44461e0b11f8",
        "id": 2373,
        "name": "Springfield Golf Resort",
        "slug": "springfield-golf-resort",
        "city": "Chandler",
        "province": "Arizona",
        "country": "United States",
        "address": "1200 E Saint Andrews Blvd",
        "phone": "(480) 895-0916",
        "website": "http://www.springfieldgolfresort.com/",
        "postcode": "85249",
        "defaultAffiliationTypeId": 82602,
        "location": {
          "lat": 33.211858,
          "lon": -111.820853
        },
        "courses": [
          {
            "id": 2725,
            "name": "Springfield",
            "holes": 18,
            "uuid": "cb32d3ac-c353-452b-b7f7-6a1047354cb7"
          },
          {
            "id": 20992,
            "name": "Springfield Back 9",
            "holes": 9,
            "uuid": "16584415-9fcf-4449-85f2-07e3778eebf8"
          }
        ]
      },
      "datesChecked": [
        "2026-02-18",
        "2026-02-14",
        "2026-02-21"
      ],
      "teeTimes": [
        0,
        0,
        0
      ]
    }
  ],
  "state": "AZ",
  "timestamp": "2026-02-13T23:33:05-07:00",
  "total": 92,
  "wrongState": 14
}