{
  "confirmed": 0,
  "elapsed": "51.542337416s",
  "listedOnly": 11,
  "misses": 10,
  "platform": "chronogolf",
  "results": [
    {
      "input": "Audubon Park Golf Course",
      "city": "New Orleans",
      "slug": "",
      "slugSource": "",
      "status": "miss"
    },
    {
      "input": "Bayou Oaks at City Park - South",
      "city": "New Orleans",
      "slug": "",
      "slugSource": "",
      "status": "miss"
    },
    {
      "input": "Bayou Oaks at City Park - North",
      "city": "New Orleans",
      "slug": "",
      "slugSource": "",
      "status": "miss"
    },
    {
      "input": "Joseph M. Bartholomew Golf Course",
      "city": "New Orleans",
      "slug": "joseph-m-bartholomew-golf-club",
      "slugSource": "swap-golf-club",
      "status": "listed_only",
      "club": {
        "uuid": "b957e12a-7164-4b7f-8bc5-2eacf3983c94",
        "id": 7118,
        "name": "Joseph M Bartholomew Golf Club",
        "slug": "joseph-m-bartholomew-golf-club",
        "city": "New Orleans",
        "province": "Louisiana",
        "country": "United States",
        "address": "6514 Congress Dr",
        "phone": "(504) 288-0928",
        "website": "",
        "postcode": "70126",
        "defaultAffiliationTypeId": 29294,
        "location": {
          "lat": 30.026909,
          "lon": -90.038253
        },
        "courses": [
          {
            "id": 8151,
            "name": "Joseph M Bartholomew",
            "holes": 18,
            "uuid": "69087c50-ff9a-45ea-b408-862ecb9b2474"
          }
        ]
      },
      "datesChecked": [
        "2026-02-18",
        "2026-02-21",
        "2026-02-28"
      ],
      "teeTimes": [
        0,
        0,
        0
      ]
    },
    {
      "input": "Lakewood Golf Club",
      "city": "New Orleans",
      "slug": "lakewood-golf-club-louisiana",
      "slugSource": "name+state",
      "status": "listed_only",
      "club": {
        "uuid": "edd76e68-30dc-4ed6-b1cd-3b880f6b844d",
        "id": 7124,
        "name": "Lakewood Golf Club",
        "slug": "lakewood-golf-club-louisiana",
        "city": "New Orleans",
        "province": "Louisiana",
        "country": "United States",
        "address": "4801 General De Gaulle Dr",
        "phone": "(504) 393-1010",
        "website": "http://www.lakewoodgolf.com",
        "postcode": "70131",
        "defaultAffiliationTypeId": 29318,
        "location": {
          "lat": 29.914982,
          "lon": -90.005533
        },
        "courses": [
          {
            "id": 8157,
            "name": "Lakewood",
            "holes": 18,
            "uuid": "7b8bb985-97cf-4c86-8942-18034ab43e0c"
          }
        ]
      },
      "datesChecked": [
        "2026-02-18",
        "2026-02-21",
        "2026-02-28"
      ],
      "teeTimes": [
        0,
        0,
        0
      ]
    },
    {
      "input": "Brechtel Memorial Park Municipal Golf Course",
      "city": "New Orleans",
      "slug": "brechtel-memorial-park-municipal-golf-club",
      "slugSource": "swap-golf-club",
      "status": "listed_only",
      "club": {
        "uuid": "d8696f3e-86ed-4453-9d35-12a1c121f0ef",
        "id": 7074,
        "name": "Brechtel Memorial Park Municipal Golf Club",
        "slug": "brechtel-memorial-park-municipal-golf-club",
        "city": "New Orleans",
        "province": "Louisiana",
        "country": "United States",
        "address": "3700 Behrman Pl",
        "phone": "(504) 362-4761",
        "website": "",
        "postcode": "70114",
        "defaultAffiliationTypeId": 29118,
        "location": {
          "lat": 29.917116,
          "lon": -90.017616
        },
        "courses": [
          {
            "id": 8107,
            "name": "Brechtel Memorial Park Municipal",
            "holes": 18,
            "uuid": "e0ad0a97-b469-4cd7-bdd0-ccc656d88315"
          }
        ]
      },
      "datesChecked": [
        "2026-02-18",
        "2026-02-21",
        "2026-02-28"
      ],
      "teeTimes": [
        0,
        0,
        0
      ]
    },
    {
      "input": "English Turn Golf \u0026 Country Club",
      "city": "New Orleans",
      "slug": "",
      "slugSource": "",
      "status": "miss"
    },
    {
      "input": "Stonebridge Golf Club of New Orleans",
      "city": "Gretna",
      "slug": "stonebridge-golf-club-of-new-orleans",
      "slugSource": "name+state",
      "status": "listed_only",
      "club": {
        "uuid": "994d8be2-6652-42da-b229-ff40519b5b0b",
        "id": 7128,
        "name": "Stonebridge Golf Club of New Orleans",
        "slug": "stonebridge-golf-club-of-new-orleans",
        "city": "Gretna",
        "province": "Louisiana",
        "country": "United States",
        "address": "1500 Stonebridge Dr",
        "phone": "(504) 394-1300",
        "website": "http://www.stonebridgegolfofno.com",
        "postcode": "70056",
        "defaultAffiliationTypeId": 29334,
        "location": {
          "lat": 29.860702,
          "lon": -90.037567
        },
        "courses": [
          {
            "id": 8162,
            "name": "Pete Fountain 9",
            "holes": 9,
            "uuid": "cf181346-d150-4916-ba36-b82a6748e436"
          },
          {
            "id": 8161,
            "name": "Armstrong 9/Hirt 9",
            "holes": 18,
            "uuid": "f2a125c8-ae1f-42e8-916d-a7ef200da932"
          }
        ]
      },
      "datesChecked": [
        "2026-02-18",
        "2026-02-21",
        "2026-02-28"
      ],
      "teeTimes": [
        0,
        0,
        0
      ]
    },
    {
      "input": "Timberlane Golf \u0026 Recreation",
      "city": "Gretna",
      "slug": "",
      "slugSource": "",
      "status": "miss"
    },
    {
      "input": "TPC Louisiana",
      "city": "Avondale",
      "slug": "",
      "slugSource": "",
      "status": "miss"
    },
    {
      "input": "Grand Ridge Golf Club",
      "city": "Luling",
      "slug": "grand-ridge-golf-course",
      "slugSource": "swap-golf-course",
      "status": "listed_only",
      "club": {
        "uuid": "d52e2d80-6f46-4005-b381-159ef9a0b130",
        "id": 7198,
        "name": "Grand Ridge Golf Course",
        "slug": "grand-ridge-golf-course",
        "city": "Luling",
        "province": "Louisiana",
        "country": "United States",
        "address": "500 Willowdale Blvd",
        "phone": "(504) 785-2478",
        "website": "http://www.grandridgegolf.com/",
        "postcode": "70070",
        "defaultAffiliationTypeId": 29614,
        "location": {
          "lat": 29.8965156,
          "lon": -90.3398216
        },
        "courses": [
          {
            "id": 8236,
            "name": "Willowdale",
            "holes": 18,
            "uuid": "e7c11da2-53ad-48d8-9c81-8f1be7b809f8"
          }
        ]
      },
      "datesChecked": [
        "2026-02-18",
        "2026-02-21",
        "2026-02-28"
      ],
      "teeTimes": [
        0,
        0,
        0
      ]
    },
    {
      "input": "Cypress Lakes Country Club",
      "city": "Destrehan",
      "slug": "cypress-lakes-golf-course",
      "slugSource": "swap-golf-course",
      "status": "wrong_state",
      "club": {
        "uuid": "5a2bc1a2-4c56-4a4c-b740-55ca8b8737a4",
        "id": 9086,
        "name": "Cypress Lakes Golf Course",
        "slug": "cypress-lakes-golf-course-north-carolina",
        "city": "Hope Mills",
        "province": "North Carolina",
        "country": "United States",
        "address": "2126 Cypress Lakes Rd",
        "phone": "(910) 483-0359",
        "website": "http://www.cypresslakesnc.com/",
        "postcode": "28348",
        "defaultAffiliationTypeId": 37166,
        "location": {
          "lat": 34.920755,
          "lon": -78.877397
        },
        "courses": [
          {
            "id": 10458,
            "name": "Cypress Lakes",
            "holes": 18,
            "uuid": "a7c34d9f-6541-4f7c-ba21-06e8cd5cbac2"
          }
        ]
      }
    },
    {
      "input": "Fashion Golf \u0026 Country Club",
      "city": "Hahnville",
      "slug": "",
      "slugSource": "",
      "status": "miss"
    },
    {
      "input": "Eastover Country Club",
      "city": "New Orleans",
      "slug": "eastover-country-club",
      "slugSource": "name+state",
      "status": "listed_only",
      "club": {
        "uuid": "d68c1b5b-7a27-4810-9265-d3217356a22a",
        "id": 7094,
        "name": "Eastover Country Club",
        "slug": "eastover-country-club",
        "city": "New Orleans",
        "province": "Louisiana",
        "country": "United States",
        "address": "5889 Eastover Dr",
        "phone": "(504) 245-7347",
        "website": "http://www.eastovercc.com",
        "postcode": "70128",
        "defaultAffiliationTypeId": 29198,
        "location": {
          "lat": 30.044645,
          "lon": -89.94664
        },
        "courses": [
          {
            "id": 8127,
            "name": "Teeth of the Gator",
            "holes": 18,
            "uuid": "8db1cbbb-f9e7-480e-a771-e980b075326c"
          }
        ]
      },
      "datesChecked": [
        "2026-02-18",
        "2026-02-21",
        "2026-02-28"
      ],
      "teeTimes": [
        0,
        0,
        0
      ]
    },
    {
      "input": "Belle Terre Country Club",
      "city": "LaPlace",
      "slug": "belle-terre-country-club",
      "slugSource": "name+state",
      "status": "listed_only",
      "club": {
        "uuid": "984c7be7-ca44-4265-83d5-0db54b9af7e7",
        "id": 7071,
        "name": "Belle Terre Country Club",
        "slug": "belle-terre-country-club",
        "city": "La Place",
        "province": "Louisiana",
        "country": "United States",
        "address": "111 Fairway Dr",
        "phone": "(504) 652-5000",
        "website": "http://www.belleterregolf.com",
        "postcode": "70068",
        "defaultAffiliationTypeId": 29106,
        "location": {
          "lat": 30.085607,
          "lon": -90.49845
        },
        "courses": [
          {
            "id": 8104,
            "name": "Belle Terre",
            "holes": 18,
            "uuid": "cdadf2a9-d148-4972-8341-827cb74afada"
          }
        ]
      },
      "datesChecked": [
        "2026-02-18",
        "2026-02-21",
        "2026-02-28"
      ],
      "teeTimes": [
        0,
        0,
        0
      ]
    },
    {
      "input": "Riverlands Golf \u0026 Country Club",
      "city": "LaPlace",
      "slug": "",
      "slugSource": "",
      "status": "miss"
    },
    {
      "input": "LaTour Golf Club",
      "city": "Mathews",
      "slug": "",
      "slugSource": "",
      "status": "miss"
    },
    {
      "input": "Oak Harbor Golf Club",
      "city": "Slidell",
      "slug": "oak-harbor-golf-club-louisiana",
      "slugSource": "name+state",
      "status": "listed_only",
      "club": {
        "uuid": "dc695e68-fa64-4a30-b947-e255c83ff041",
        "id": 7146,
        "name": "Oak Harbor Golf Club",
        "slug": "oak-harbor-golf-club-louisiana",
        "city": "Slidell",
        "province": "Louisiana",
        "country": "United States",
        "address": "201 Oak Harbor Blvd",
        "phone": "(504) 646-0110",
        "website": "http://www.oakharborgolf.com",
        "postcode": "70458",
        "defaultAffiliationTypeId": 29406,
        "location": {
          "lat": 30.244839,
          "lon": -89.7954551
        },
        "courses": [
          {
            "id": 8180,
            "name": "Oak Harbor",
            "holes": 18,
            "uuid": "cba4f8a8-5e97-4806-82c0-abddc986391b"
          }
        ]
      },
      "datesChecked": [
        "2026-02-18",
        "2026-02-21",
        "2026-02-28"
      ],
      "teeTimes": [
        0,
        0,
        0
      ]
    },
    {
      "input": "Royal Golf Club",
      "city": "Slidell",
      "slug": "royal-golf-club",
      "slugSource": "name+state",
      "status": "listed_only",
      "club": {
        "uuid": "bc742761-1d23-4302-8f0e-14236e70625b",
        "id": 7163,
        "name": "Royal Golf Club",
        "slug": "royal-golf-club",
        "city": "Slidell",
        "province": "Louisiana",
        "country": "United States",
        "address": "201 Royal Dr",
        "phone": "(985) 643-3000",
        "website": "",
        "postcode": "70460",
        "defaultAffiliationTypeId": 29474,
        "location": {
          "lat": 30.334273,
          "lon": -89.829524
        },
        "courses": [
          {
            "id": 8199,
            "name": "Royal",
            "holes": 18,
            "uuid": "c33cba59-5923-41ef-bc07-1ec7f9c868ea"
          }
        ]
      },
      "datesChecked": [
        "2026-02-18",
        "2026-02-21",
        "2026-02-28"
      ],
      "teeTimes": [
        0,
        0,
        0
      ]
    },
    {
      "input": "Pinewood Country Club",
      "city": "Slidell",
      "slug": "pinewood-country-club-louisiana",
      "slugSource": "name+state",
      "status": "listed_only",
      "club": {
        "uuid": "d54b29c4-0e7a-4fb3-a7da-a12e53c4f0dd",
        "id": 7157,
        "name": "Pinewood Country Club",
        "slug": "pinewood-country-club-louisiana",
        "city": "Slidell",
        "province": "Louisiana",
        "country": "United States",
        "address": "405 Country Club Blvd",
        "phone": "(504) 643-6893",
        "website": "",
        "postcode": "70458",
        "defaultAffiliationTypeId": 29450,
        "location": {
          "lat": 30.307779,
          "lon": -89.762746
        },
        "courses": [
          {
            "id": 8193,
            "name": "Pinewood",
            "holes": 18,
            "uuid": "5ec4e9e9-c32f-454c-a927-678964cfb17f"
          }
        ]
      },
      "datesChecked": [
        "2026-02-18",
        "2026-02-21",
        "2026-02-28"
      ],
      "teeTimes": [
        0,
        0,
        0
      ]
    },
    {
      "input": "Abita Springs Golf \u0026 Country Club",
      "city": "Abita Springs",
      "slug": "",
      "slugSource": "",
      "status": "miss"
    },
    {
      "input": "Covington Country Club",
      "city": "Covington",
      "slug": "covington-country-club-louisiana",
      "slugSource": "name+state",
      "status": "listed_only",
      "club": {
        "uuid": "dd1dc69c-698c-4dfb-a28e-1cb92f7ef030",
        "id": 7087,
        "name": "Covington Country Club",
        "slug": "covington-country-club-louisiana",
        "city": "Covington",
        "province": "Louisiana",
        "country": "United States",
        "address": "200 Country Club Dr",
        "phone": "(504) 892-1904",
        "website": "http://www.covingtoncountryclub.com/",
        "postcode": "70433",
        "defaultAffiliationTypeId": 29170,
        "location": {
          "lat": 30.413034,
          "lon": -90.086827
        },
        "courses": [
          {
            "id": 8120,
            "name": "Covington",
            "holes": 18,
            "uuid": "0961f6af-bfe4-4995-9749-21cf3e4e8ea4"
          }
        ]
      },
      "datesChecked": [
        "2026-02-18",
        "2026-02-21",
        "2026-02-28"
      ],
      "teeTimes": [
        0,
        0,
        0
      ]
    }
  ],
  "state": "LA",
  "timestamp": "2026-02-15T05:51:04-07:00",
  "totalInput": 22,
  "validationDates": [
    "2026-02-18",
    "2026-02-21",
    "2026-02-28"
  ],
  "wrongState": 1
}