{
  "confirmed": 6,
  "elapsed": "1m47.186932792s",
  "listedOnly": 11,
  "misses": 23,
  "platform": "chronogolf",
  "results": [
    {
      "input": "Crandon Golf at Key Biscayne",
      "city": "Key Biscayne",
      "slug": "",
      "slugSource": "",
      "status": "miss"
    },
    {
      "input": "Country Club of Miami - East Course",
      "city": "Miami",
      "slug": "",
      "slugSource": "",
      "status": "miss"
    },
    {
      "input": "Country Club of Miami - West Course",
      "city": "Miami",
      "slug": "",
      "slugSource": "",
      "status": "miss"
    },
    {
      "input": "Palmetto Golf Course",
      "city": "Miami",
      "slug": "palmetto-golf-course-florida",
      "slugSource": "name+state",
      "status": "listed_only",
      "club": {
        "uuid": "e151183a-1f73-4a88-a526-498d2fdc52af",
        "id": 4214,
        "name": "Palmetto Golf Course",
        "slug": "palmetto-golf-course-florida",
        "city": "Miami",
        "province": "Florida",
        "country": "United States",
        "address": "9300 SW 152nd St",
        "phone": "(305) 238-2922",
        "website": "http://www.golfpalmetto.com",
        "postcode": "33157",
        "defaultAffiliationTypeId": 17678,
        "location": {
          "lat": 25.628078,
          "lon": -80.342974
        },
        "courses": [
          {
            "id": 4912,
            "name": "Palmetto",
            "holes": 18,
            "uuid": "898ce9a5-9186-45c7-aa2e-2bcd20e83624"
          }
        ]
      },
      "datesChecked": [
        "2026-02-18",
        "2026-02-21",
        "2026-02-28"
      ],
      "teeTimes": [
        0,
        0,
        0
      ]
    },
    {
      "input": "Greynolds Golf Course",
      "city": "North Miami Beach",
      "slug": "",
      "slugSource": "",
      "status": "miss"
    },
    {
      "input": "Briar Bay Golf Course",
      "city": "Miami",
      "slug": "briar-bay-golf-course",
      "slugSource": "name+state",
      "status": "listed_only",
      "club": {
        "uuid": "8e2575c9-cd7a-4b17-9abb-95efcd7f0cf6",
        "id": 3752,
        "name": "Briar Bay Golf Course",
        "slug": "briar-bay-golf-course",
        "city": "Miami",
        "province": "Florida",
        "country": "United States",
        "address": "9373 SW 134th St",
        "phone": "(305) 235-6667",
        "website": "http://briarbaygolf.com/",
        "postcode": "33176",
        "defaultAffiliationTypeId": 15830,
        "location": {
          "lat": 25.646365,
          "lon": -80.336568
        },
        "courses": [
          {
            "id": 4289,
            "name": "Briar Bay",
            "holes": 18,
            "uuid": "ff987639-dfde-4241-bef4-425c7d966a3b"
          }
        ]
      },
      "datesChecked": [
        "2026-02-18",
        "2026-02-21",
        "2026-02-28"
      ],
      "teeTimes": [
        0,
        0,
        0
      ]
    },
    {
      "input": "Trump National Doral - Blue Monster",
      "city": "Miami",
      "slug": "",
      "slugSource": "",
      "status": "miss"
    },
    {
      "input": "Trump National Doral - Red Tiger",
      "city": "Miami",
      "slug": "",
      "slugSource": "",
      "status": "miss"
    },
    {
      "input": "Trump National Doral - Golden Palm",
      "city": "Miami",
      "slug": "",
      "slugSource": "",
      "status": "miss"
    },
    {
      "input": "Trump National Doral - Silver Fox",
      "city": "Miami",
      "slug": "",
      "slugSource": "",
      "status": "miss"
    },
    {
      "input": "Miami Beach Golf Club",
      "city": "Miami Beach",
      "slug": "miami-beach-golf-club",
      "slugSource": "name+state",
      "status": "confirmed",
      "club": {
        "uuid": "4cf05b5b-4563-4904-becb-f0381a23c921",
        "id": 4135,
        "name": "Miami Beach Golf Club",
        "slug": "miami-beach-golf-club",
        "city": "Miami Beach",
        "province": "Florida",
        "country": "United States",
        "address": "2301 Alton Rd",
        "phone": "(305) 532-3350",
        "website": "http://www.miamibeachgolfclub.com/",
        "postcode": "33140",
        "defaultAffiliationTypeId": 98167,
        "location": {
          "lat": 25.801877,
          "lon": -80.138109
        },
        "courses": [
          {
            "id": 4795,
            "name": "Miami Beach",
            "holes": 18,
            "uuid": "2be40f28-6aab-46ee-984b-c69e7c22d0ce"
          }
        ]
      },
      "datesChecked": [
        "2026-02-18",
        "2026-02-21",
        "2026-02-28"
      ],
      "teeTimes": [
        24,
        24,
        24
      ]
    },
    {
      "input": "Normandy Shores Golf Club",
      "city": "Miami Beach",
      "slug": "normandy-shores-golf-course",
      "slugSource": "swap-golf-course",
      "status": "confirmed",
      "club": {
        "uuid": "329d7176-670e-4403-a2f4-87a5d3bb6791",
        "id": 4163,
        "name": "Normandy Shores Golf Course",
        "slug": "normandy-shores-golf-course",
        "city": "Miami Beach",
        "province": "Florida",
        "country": "United States",
        "address": "2401 Biarritz Dr",
        "phone": "(305) 868-6502",
        "website": "http://www.normandyshoresgolfclub.com",
        "postcode": "33141",
        "defaultAffiliationTypeId": 98168,
        "location": {
          "lat": 25.856791,
          "lon": -80.144597
        },
        "courses": [
          {
            "id": 4835,
            "name": "Normandy Shores",
            "holes": 18,
            "uuid": "ee1a71d5-7edf-46a5-a37d-d08f171d9082"
          }
        ]
      },
      "datesChecked": [
        "2026-02-18",
        "2026-02-21",
        "2026-02-28"
      ],
      "teeTimes": [
        24,
        24,
        24
      ]
    },
    {
      "input": "Biltmore Golf Course",
      "city": "Coral Gables",
      "slug": "biltmore-country-club",
      "slugSource": "swap-country-club",
      "status": "wrong_state",
      "club": {
        "uuid": "e6aacea1-507b-4e90-8087-4a1f08b031e9",
        "id": 5565,
        "name": "Biltmore Country Club",
        "slug": "biltmore-country-club",
        "city": "Barrington",
        "province": "Illinois",
        "country": "United States",
        "address": "160 Biltmore Dr",
        "phone": "(847) 381-6884",
        "website": "http://www.biltmore-cc.com/",
        "postcode": "60010",
        "defaultAffiliationTypeId": 23082,
        "location": {
          "lat": 42.200395,
          "lon": -88.134225
        },
        "courses": [
          {
            "id": 6486,
            "name": "Biltmore",
            "holes": 18,
            "uuid": "4ef49214-f032-48f6-a304-3c8b5599d99d"
          }
        ]
      }
    },
    {
      "input": "Killian Greens Golf Club",
      "city": "Miami",
      "slug": "killian-greens-golf-club",
      "slugSource": "name+state",
      "status": "listed_only",
      "club": {
        "uuid": "f8bfaf1c-c2fd-47b6-afa2-ba80d0865e8d",
        "id": 4057,
        "name": "Killian Greens Golf Club",
        "slug": "killian-greens-golf-club",
        "city": "Miami",
        "province": "Florida",
        "country": "United States",
        "address": "9980 SW 104th St",
        "phone": "(305) 271-0917",
        "website": "http://www.killiangreensgolfclub.com/",
        "postcode": "33176",
        "defaultAffiliationTypeId": 17050,
        "location": {
          "lat": 25.672384,
          "lon": -80.355881
        },
        "courses": [
          {
            "id": 4695,
            "name": "Killian Greens",
            "holes": 18,
            "uuid": "4d7931b8-5136-436d-9722-586f8e303864"
          }
        ]
      },
      "datesChecked": [
        "2026-02-18",
        "2026-02-21",
        "2026-02-28"
      ],
      "teeTimes": [
        0,
        0,
        0
      ]
    },
    {
      "input": "Miami Shores Country Club",
      "city": "Miami Shores",
      "slug": "miami-shores-country-club",
      "slugSource": "name+state",
      "status": "confirmed",
      "club": {
        "uuid": "36df3c09-8318-44d7-b243-7bd88a8fc1dc",
        "id": 4137,
        "name": "Miami Shores Country Club",
        "slug": "miami-shores-country-club",
        "city": "Miami Shores",
        "province": "Florida",
        "country": "United States",
        "address": "10000 Biscayne Blvd",
        "phone": "(305) 795-2366",
        "website": "http://www.miamishoresgolf.com/",
        "postcode": "33138",
        "defaultAffiliationTypeId": 17370,
        "location": {
          "lat": 25.86818,
          "lon": -80.176219
        },
        "courses": [
          {
            "id": 4797,
            "name": "Miami Shores",
            "holes": 18,
            "uuid": "f0675506-a29b-47ce-80ba-c00aba0f1e57"
          }
        ]
      },
      "datesChecked": [
        "2026-02-18",
        "2026-02-21",
        "2026-02-28"
      ],
      "teeTimes": [
        24,
        24,
        24
      ]
    },
    {
      "input": "Melreese Golf Course",
      "city": "Miami",
      "slug": "",
      "slugSource": "",
      "status": "miss"
    },
    {
      "input": "Shula's Golf Club",
      "city": "Miami Lakes",
      "slug": "",
      "slugSource": "",
      "status": "miss"
    },
    {
      "input": "JW Marriott Turnberry - Soffer Course",
      "city": "Aventura",
      "slug": "",
      "slugSource": "",
      "status": "miss"
    },
    {
      "input": "JW Marriott Turnberry - Miller Course",
      "city": "Aventura",
      "slug": "",
      "slugSource": "",
      "status": "miss"
    },
    {
      "input": "Costa Del Sol Golf Club",
      "city": "Miami",
      "slug": "costa-del-sol-golf-course",
      "slugSource": "swap-golf-course",
      "status": "confirmed",
      "club": {
        "uuid": "6ced22dc-5e22-4250-9811-e0681f7105e5",
        "id": 3799,
        "name": "Costa Del Sol Golf Club",
        "slug": "costa-del-sol-golf-course",
        "city": "Doral",
        "province": "Florida",
        "country": "United States",
        "address": "100 Costa Del Sol Blvd",
        "phone": "(305) 592-3300",
        "website": "http://cdsgolfclub.com/",
        "postcode": "33178",
        "defaultAffiliationTypeId": 16018,
        "location": {
          "lat": 25.811218,
          "lon": -80.360897
        },
        "courses": [
          {
            "id": 4346,
            "name": "Costa del Sol",
            "holes": 18,
            "uuid": "a8cbde80-89c7-485f-ab4f-0097ea677514"
          }
        ]
      },
      "datesChecked": [
        "2026-02-18",
        "2026-02-21",
        "2026-02-28"
      ],
      "teeTimes": [
        24,
        24,
        24
      ]
    },
    {
      "input": "Miccosukee Golf \u0026 Country Club",
      "city": "Miami",
      "slug": "",
      "slugSource": "",
      "status": "miss"
    },
    {
      "input": "Redland Golf \u0026 Country Club",
      "city": "Homestead",
      "slug": "redland-golf-and-country-club",
      "slugSource": "name",
      "status": "confirmed",
      "club": {
        "uuid": "8eee3d9f-ab1a-4926-9f47-bf2bfe965ba5",
        "id": 19620,
        "name": "Redland Golf and Country Club",
        "slug": "redland-golf-and-country-club",
        "city": "Homestead",
        "province": "Florida",
        "country": "United States",
        "address": "24451 SW 177th Ave",
        "phone": "(305) 247-8503",
        "website": "https://www.redlandgolf.com/",
        "postcode": "33031",
        "defaultAffiliationTypeId": 142649,
        "location": {
          "lat": 25.54149992366736,
          "lon": -80.47418872477719
        },
        "courses": [
          {
            "id": 27695,
            "name": "Redland",
            "holes": 18,
            "uuid": "94410a93-909d-4510-96a8-6fd49535508b"
          }
        ]
      },
      "datesChecked": [
        "2026-02-18",
        "2026-02-21",
        "2026-02-28"
      ],
      "teeTimes": [
        24,
        24,
        19
      ]
    },
    {
      "input": "Jacaranda Golf Club",
      "city": "Plantation",
      "slug": "jacaranda-golf-club",
      "slugSource": "name+state",
      "status": "listed_only",
      "club": {
        "uuid": "5970fd53-a0db-4ae5-a2f4-e9d724623078",
        "id": 4034,
        "name": "Jacaranda Golf Club ",
        "slug": "jacaranda-golf-club",
        "city": "Plantation",
        "province": "Florida",
        "country": "United States",
        "address": "9200 W Broward Blvd",
        "phone": "(954)472-5836",
        "website": "http://www.golfjacaranda.com/",
        "postcode": "33324",
        "defaultAffiliationTypeId": 16958,
        "location": {
          "lat": 26.112441,
          "lon": -80.272885
        },
        "courses": [
          {
            "id": 4664,
            "name": "West",
            "holes": 18,
            "uuid": "3ae4a642-34f3-4925-91cd-46366d43de22"
          },
          {
            "id": 4663,
            "name": "East",
            "holes": 18,
            "uuid": "bd6c0228-7025-4508-8b46-4d9e0297ee6d"
          }
        ]
      },
      "datesChecked": [
        "2026-02-18",
        "2026-02-21",
        "2026-02-28"
      ],
      "teeTimes": [
        0,
        0,
        0
      ]
    },
    {
      "input": "Plantation Preserve Golf Course",
      "city": "Plantation",
      "slug": "plantation-preserve-golf-club",
      "slugSource": "swap-golf-club",
      "status": "listed_only",
      "club": {
        "uuid": "99ce9ad0-6627-48e4-a6c5-958e08ef0151",
        "id": 4252,
        "name": "Plantation Preserve Golf Club ",
        "slug": "plantation-preserve-golf-club",
        "city": "Plantation",
        "province": "Florida",
        "country": "United States",
        "address": "7050 West Broward Blvd.",
        "phone": "(954) 585-5020",
        "website": "http://www.plantation.org/Golf/Plantation-Preserve/",
        "postcode": "33317",
        "defaultAffiliationTypeId": 17830,
        "location": {
          "lat": 26.119494,
          "lon": -80.241669
        },
        "courses": [
          {
            "id": 4970,
            "name": "Plantation Preserve",
            "holes": 18,
            "uuid": "81b24807-a31b-4038-a0c3-b294bb157755"
          }
        ]
      },
      "datesChecked": [
        "2026-02-18",
        "2026-02-21",
        "2026-02-28"
      ],
      "teeTimes": [
        0,
        0,
        0
      ]
    },
    {
      "input": "Hollywood Beach Golf Club",
      "city": "Hollywood",
      "slug": "",
      "slugSource": "",
      "status": "miss"
    },
    {
      "input": "Orangebrook Golf Course",
      "city": "Hollywood",
      "slug": "orangebrook-country-club",
      "slugSource": "swap-country-club",
      "status": "listed_only",
      "club": {
        "uuid": "6c7fbf27-32c6-4dda-8b16-0479e5c6869c",
        "id": 4190,
        "name": "Orangebrook Country Club ",
        "slug": "orangebrook-country-club",
        "city": "Hollywood",
        "province": "Florida",
        "country": "United States",
        "address": "400 Entrada Dr",
        "phone": "(954) 967-4653",
        "website": "http://www.orangebrook.com",
        "postcode": "33021",
        "defaultAffiliationTypeId": 17582,
        "location": {
          "lat": 26.017391,
          "lon": -80.138869
        },
        "courses": [
          {
            "id": 4882,
            "name": "East",
            "holes": 18,
            "uuid": "6c7da3d3-2f49-4221-aad3-67337c172c1a"
          },
          {
            "id": 4881,
            "name": "West",
            "holes": 18,
            "uuid": "49bfc1f5-23ec-40de-8e06-d8e0294c801a"
          }
        ]
      },
      "datesChecked": [
        "2026-02-18",
        "2026-02-21",
        "2026-02-28"
      ],
      "teeTimes": [
        0,
        0,
        0
      ]
    },
    {
      "input": "Pembroke Lakes Golf \u0026 Racquet Club",
      "city": "Pembroke Pines",
      "slug": "pembroke-lakes-golf-and-racquet-club",
      "slugSource": "name+state",
      "status": "confirmed",
      "club": {
        "uuid": "e2ee7598-066c-45fd-8703-628169c7ddcc",
        "id": 4228,
        "name": "Pembroke Lakes Golf \u0026 Racquet Club",
        "slug": "pembroke-lakes-golf-and-racquet-club",
        "city": "Pembroke Pines",
        "province": "Florida",
        "country": "United States",
        "address": "10500 Taft Street",
        "phone": "(954) 431-4144",
        "website": "http://www.ppines.com/index.aspx?NID=969",
        "postcode": "33026",
        "defaultAffiliationTypeId": 17734,
        "location": {
          "lat": 26.01932,
          "lon": -80.28679
        },
        "courses": [
          {
            "id": 4934,
            "name": "Pembroke Lakes",
            "holes": 18,
            "uuid": "943be6af-27a3-4dd1-b817-3bd537433390"
          }
        ]
      },
      "datesChecked": [
        "2026-02-18",
        "2026-02-21",
        "2026-02-28"
      ],
      "teeTimes": [
        24,
        8,
        24
      ]
    },
    {
      "input": "Grand Palms Golf Club",
      "city": "Pembroke Pines",
      "slug": "",
      "slugSource": "",
      "status": "miss"
    },
    {
      "input": "Pompano Beach Golf Course - Pines",
      "city": "Pompano Beach",
      "slug": "",
      "slugSource": "",
      "status": "miss"
    },
    {
      "input": "Pompano Beach Golf Course - Palms",
      "city": "Pompano Beach",
      "slug": "",
      "slugSource": "",
      "status": "miss"
    },
    {
      "input": "Palm-Aire Country Club - Oaks",
      "city": "Pompano Beach",
      "slug": "",
      "slugSource": "",
      "status": "miss"
    },
    {
      "input": "Palm-Aire Country Club - Cypress",
      "city": "Pompano Beach",
      "slug": "",
      "slugSource": "",
      "status": "miss"
    },
    {
      "input": "Deer Creek Golf Club",
      "city": "Deerfield Beach",
      "slug": "deer-creek-golf-club-florida",
      "slugSource": "name+state",
      "status": "listed_only",
      "club": {
        "uuid": "b2efda92-72ca-4f26-894d-a82dfa57b7c5",
        "id": 3836,
        "name": "Deer Creek Golf Club",
        "slug": "deer-creek-golf-club-florida",
        "city": "Deerfield Beach",
        "province": "Florida",
        "country": "United States",
        "address": "2801 Country Club Blvd",
        "phone": "(954) 421-0006",
        "website": "http://www.deercreekflorida.com",
        "postcode": "33442",
        "defaultAffiliationTypeId": 16166,
        "location": {
          "lat": 26.320509,
          "lon": -80.142014
        },
        "courses": [
          {
            "id": 4389,
            "name": "Deer Creek",
            "holes": 18,
            "uuid": "4dbaf2b2-0c09-44c3-8bcb-a1d4a45068ec"
          }
        ]
      },
      "datesChecked": [
        "2026-02-18",
        "2026-02-21",
        "2026-02-28"
      ],
      "teeTimes": [
        0,
        0,
        0
      ]
    },
    {
      "input": "Heron Bay Golf Club",
      "city": "Coral Springs",
      "slug": "heron-bay-golf-club",
      "slugSource": "name+state",
      "status": "listed_only",
      "club": {
        "uuid": "fdbcd6d2-8330-46ab-8ea3-fd08b5f22af4",
        "id": 3978,
        "name": "Heron Bay Golf Club",
        "slug": "heron-bay-golf-club",
        "city": "Coral Springs",
        "province": "Florida",
        "country": "United States",
        "address": "11801 Heron Bay Blvd",
        "phone": "(954) 340-9160",
        "website": "http://heronbay.clublink.com/",
        "postcode": "33076",
        "defaultAffiliationTypeId": 16734,
        "location": {
          "lat": 26.314048,
          "lon": -80.276356
        },
        "courses": [
          {
            "id": 4587,
            "name": "Heron Bay",
            "holes": 18,
            "uuid": "616d73d1-c342-4f4b-b705-83922ceba5e5"
          }
        ]
      },
      "datesChecked": [
        "2026-02-18",
        "2026-02-21",
        "2026-02-28"
      ],
      "teeTimes": [
        0,
        0,
        0
      ]
    },
    {
      "input": "Country Club of Coral Springs",
      "city": "Coral Springs",
      "slug": "country-club-of-coral-springs",
      "slugSource": "name+state",
      "status": "listed_only",
      "club": {
        "uuid": "b70d56c6-b926-4d77-9365-af630e15fb4d",
        "id": 3801,
        "name": "Country Club of Coral Springs",
        "slug": "country-club-of-coral-springs",
        "city": "Coral Springs",
        "province": "Florida",
        "country": "United States",
        "address": "10800 W Sample Rd",
        "phone": "(954) 753-2930",
        "website": "http://www.ccofcs.com/",
        "postcode": "33065",
        "defaultAffiliationTypeId": 16026,
        "location": {
          "lat": 26.272506,
          "lon": -80.275833
        },
        "courses": [
          {
            "id": 4349,
            "name": "Coral Springs",
            "holes": 18,
            "uuid": "96f88113-2bda-420a-b598-efb8d825eaee"
          }
        ]
      },
      "datesChecked": [
        "2026-02-18",
        "2026-02-21",
        "2026-02-28"
      ],
      "teeTimes": [
        0,
        0,
        0
      ]
    },
    {
      "input": "The Bridges at Springtree Golf Club",
      "city": "Sunrise",
      "slug": "",
      "slugSource": "",
      "status": "miss"
    },
    {
      "input": "Inverrary Country Club",
      "city": "Lauderhill",
      "slug": "inverrary-country-club",
      "slugSource": "name+state",
      "status": "listed_only",
      "club": {
        "uuid": "aac2ed22-ca32-4ce9-9cf6-867656bc319f",
        "id": 4027,
        "name": "Inverrary Country Club ",
        "slug": "inverrary-country-club",
        "city": "Lauderhill",
        "province": "Florida",
        "country": "United States",
        "address": "3840 Inverrary Blvd",
        "phone": "(954)733-7550",
        "website": "http://inverrarygolf.com/",
        "postcode": "33319",
        "defaultAffiliationTypeId": 16930,
        "location": {
          "lat": 26.172439,
          "lon": -80.23719
        },
        "courses": [
          {
            "id": 4656,
            "name": "West",
            "holes": 18,
            "uuid": "0b7199f1-a6dc-4336-8b24-cb3dddad03bd"
          },
          {
            "id": 4655,
            "name": "East",
            "holes": 18,
            "uuid": "28e9f786-c61f-476e-9070-44a69b685d94"
          }
        ]
      },
      "datesChecked": [
        "2026-02-18",
        "2026-02-21",
        "2026-02-28"
      ],
      "teeTimes": [
        0,
        0,
        0
      ]
    },
    {
      "input": "Oriole Golf Club",
      "city": "Margate",
      "slug": "",
      "slugSource": "",
      "status": "miss"
    },
    {
      "input": "Colony West Golf Club",
      "city": "Tamarac",
      "slug": "colony-west-golf-club",
      "slugSource": "name+state",
      "status": "listed_only",
      "club": {
        "uuid": "c1350a89-2b7b-492c-89ad-113f66ebcbab",
        "id": 3792,
        "name": "Colony West Golf Club ",
        "slug": "colony-west-golf-club",
        "city": "Tamarac",
        "province": "Florida",
        "country": "United States",
        "address": "6800 N Pine Island Rd",
        "phone": "(954)726-8430",
        "website": "http://www.golfcolonywest.com/",
        "postcode": "33321",
        "defaultAffiliationTypeId": 15990,
        "location": {
          "lat": 26.206561,
          "lon": -80.269242
        },
        "courses": [
          {
            "id": 4339,
            "name": "Glades Executive",
            "holes": 18,
            "uuid": "d1c8eee3-62a4-4925-9102-3b5204b67413"
          },
          {
            "id": 4338,
            "name": "Championship",
            "holes": 18,
            "uuid": "b53fdb3e-4dab-4f16-be9b-e340eba284f6"
          }
        ]
      },
      "datesChecked": [
        "2026-02-18",
        "2026-02-21",
        "2026-02-28"
      ],
      "teeTimes": [
        0,
        0,
        0
      ]
    },
    {
      "input": "Emerald Hills Golf Club",
      "city": "Hollywood",
      "slug": "emerald-hills-golf-club",
      "slugSource": "name",
      "status": "wrong_state",
      "club": {
        "uuid": "59fc80e7-0c26-4670-b91e-5ac254b89f24",
        "id": 5176,
        "name": "Emerald Hills Golf Club",
        "slug": "emerald-hills-golf-club",
        "city": "Arnolds Park",
        "province": "Iowa",
        "country": "United States",
        "address": "808 US 71 S",
        "phone": "(712) 332-7100",
        "website": "http://www.golfemeraldhills.com",
        "postcode": "51331",
        "defaultAffiliationTypeId": 21526,
        "location": {
          "lat": 43.3587759,
          "lon": -95.1418191
        },
        "courses": [
          {
            "id": 6084,
            "name": "Emerald Hills",
            "holes": 18,
            "uuid": "54cd3527-5ecc-4d62-89b3-e5b7a635ad55"
          }
        ]
      }
    },
    {
      "input": "Hillsboro Pines Golf Course",
      "city": "Deerfield Beach",
      "slug": "",
      "slugSource": "",
      "status": "miss"
    },
    {
      "input": "Bonaventure Town Center Club",
      "city": "Weston",
      "slug": "",
      "slugSource": "",
      "status": "miss"
    }
  ],
  "state": "FL",
  "timestamp": "2026-02-15T07:51:17-07:00",
  "totalInput": 42,
  "validationDates": [
    "2026-02-18",
    "2026-02-21",
    "2026-02-28"
  ],
  "wrongState": 2
}