{
  "confirmed": 1,
  "elapsed": "2m25.774122125s",
  "listedOnly": 25,
  "misses": 18,
  "platform": "chronogolf",
  "results": [
    {
      "input": "Bobby Jones Golf Course",
      "city": "Atlanta",
      "slug": "bobby-jones-golf-course",
      "slugSource": "name+state",
      "status": "listed_only",
      "club": {
        "uuid": "5b60efea-67cf-4d96-816f-2ffa4ebbf0a9",
        "id": 4673,
        "name": "Bobby Jones Golf Course",
        "slug": "bobby-jones-golf-course",
        "city": "Atlanta",
        "province": "Georgia",
        "country": "United States",
        "address": "384 Woodward Way NW",
        "phone": "(404) 355-1009",
        "website": "http://bobbyjones.americangolf.com",
        "postcode": "30305",
        "defaultAffiliationTypeId": 19514,
        "location": {
          "lat": 33.817428,
          "lon": -84.400649
        },
        "courses": [
          {
            "id": 5511,
            "name": "Bobby Jones",
            "holes": 18,
            "uuid": "c3592e5c-d38c-4417-a9a1-707beb86264e"
          }
        ]
      },
      "datesChecked": [
        "2026-02-18",
        "2026-02-14",
        "2026-02-21"
      ],
      "teeTimes": [
        0,
        0,
        0
      ]
    },
    {
      "input": "Browns Mill Golf Course",
      "city": "Atlanta",
      "slug": "browns-mill-golf-course",
      "slugSource": "name+state",
      "status": "listed_only",
      "club": {
        "uuid": "4bd99fd9-2f26-4aa1-8453-5f601b7340eb",
        "id": 4683,
        "name": "Browns Mill Golf Course",
        "slug": "browns-mill-golf-course",
        "city": "Atlanta",
        "province": "Georgia",
        "country": "United States",
        "address": "480 Cleveland Ave SE",
        "phone": "(404) 366-3573",
        "website": "http://brownsmill.americangolf.com",
        "postcode": "30354",
        "defaultAffiliationTypeId": 19554,
        "location": {
          "lat": 33.681588,
          "lon": -84.371514
        },
        "courses": [
          {
            "id": 5523,
            "name": "Browns Mill",
            "holes": 18,
            "uuid": "e2c4b857-a669-4867-95d0-36870859bdf5"
          }
        ]
      },
      "datesChecked": [
        "2026-02-18",
        "2026-02-14",
        "2026-02-21"
      ],
      "teeTimes": [
        0,
        0,
        0
      ]
    },
    {
      "input": "Alfred Tup Holmes Golf Course",
      "city": "Atlanta",
      "slug": "",
      "slugSource": "",
      "status": "miss"
    },
    {
      "input": "North Fulton Golf Course",
      "city": "Atlanta",
      "slug": "north-fulton-golf-course",
      "slugSource": "name+state",
      "status": "listed_only",
      "club": {
        "uuid": "3715b967-835b-4a5c-82b9-6df60d9dc359",
        "id": 4863,
        "name": "North Fulton Golf Course",
        "slug": "north-fulton-golf-course",
        "city": "Atlanta",
        "province": "Georgia",
        "country": "United States",
        "address": "216 W Wieuca Rd NE",
        "phone": "(404) 255-0723",
        "website": "http://northfulton.americangolf.com",
        "postcode": "30342",
        "defaultAffiliationTypeId": 20274,
        "location": {
          "lat": 33.876739,
          "lon": -84.379701
        },
        "courses": [
          {
            "id": 5725,
            "name": "North Fulton",
            "holes": 18,
            "uuid": "6ead7761-9c56-48ae-b9e2-fb80f6915932"
          }
        ]
      },
      "datesChecked": [
        "2026-02-18",
        "2026-02-14",
        "2026-02-21"
      ],
      "teeTimes": [
        0,
        0,
        0
      ]
    },
    {
      "input": "Candler Park Golf Course",
      "city": "Atlanta",
      "slug": "candler-park-golf-course",
      "slugSource": "name+state",
      "status": "listed_only",
      "club": {
        "uuid": "dde731c2-647b-46db-b06f-b572a33ee6e2",
        "id": 4693,
        "name": "Candler Park Golf Course",
        "slug": "candler-park-golf-course",
        "city": "Atlanta",
        "province": "Georgia",
        "country": "United States",
        "address": "585 Candler Park Dr NE",
        "phone": "(404) 371-1260",
        "website": "http://www.pasturegolf.com",
        "postcode": "30307",
        "defaultAffiliationTypeId": 19594,
        "location": {
          "lat": 33.770536,
          "lon": -84.339328
        },
        "courses": [
          {
            "id": 5535,
            "name": "Candler Park",
            "holes": 9,
            "uuid": "48009886-ad1b-455f-8f15-eec24a9bd1d3"
          }
        ]
      },
      "datesChecked": [
        "2026-02-18",
        "2026-02-14",
        "2026-02-21"
      ],
      "teeTimes": [
        0,
        0,
        0
      ]
    },
    {
      "input": "John A White Golf Course",
      "city": "Atlanta",
      "slug": "",
      "slugSource": "",
      "status": "miss"
    },
    {
      "input": "Charlie Yates Golf Course",
      "city": "Atlanta",
      "slug": "charlie-yates-golf-course",
      "slugSource": "name+state",
      "status": "listed_only",
      "club": {
        "uuid": "c1c7deeb-ddf7-486e-947e-368c5a254638",
        "id": 4706,
        "name": "Charlie Yates Golf Course",
        "slug": "charlie-yates-golf-course",
        "city": "Atlanta",
        "province": "Georgia",
        "country": "United States",
        "address": "10 Lakeside Village",
        "phone": "(404) 373-4655",
        "website": "http://www.charlieyatesgolfcourse.com",
        "postcode": "30317",
        "defaultAffiliationTypeId": 19646,
        "location": {
          "lat": 33.74508,
          "lon": -84.302913
        },
        "courses": [
          {
            "id": 5552,
            "name": "Charlie Yates",
            "holes": 18,
            "uuid": "52e43d6d-3717-4380-b0f8-f64e7ea1b3e7"
          }
        ]
      },
      "datesChecked": [
        "2026-02-18",
        "2026-02-14",
        "2026-02-21"
      ],
      "teeTimes": [
        0,
        0,
        0
      ]
    },
    {
      "input": "Cross Creek Golf Course",
      "city": "Atlanta",
      "slug": "cross-creek-golf-course",
      "slugSource": "name",
      "status": "wrong_state",
      "club": {
        "uuid": "ed26206a-a0d3-48ae-860d-3b116462ae0d",
        "id": 6240,
        "name": "Cross Creek Golf Course",
        "slug": "cross-creek-golf-course-indiana",
        "city": "Decatur",
        "province": "Indiana",
        "country": "United States",
        "address": "1724 Nuttman Ave Hwy 224 W",
        "phone": "(260) 724-4316",
        "website": "http://www.golfatcrosscreek.com",
        "postcode": "46733",
        "defaultAffiliationTypeId": 25782,
        "location": {
          "lat": 40.832411,
          "lon": -84.94208
        },
        "courses": [
          {
            "id": 7217,
            "name": "Cross Creek",
            "holes": 18,
            "uuid": "efb1144e-dccd-4001-b4f0-bae845818913"
          }
        ]
      }
    },
    {
      "input": "College Park Golf Course",
      "city": "College Park",
      "slug": "",
      "slugSource": "",
      "status": "miss"
    },
    {
      "input": "Mystery Valley Golf Club",
      "city": "Lithonia",
      "slug": "mystery-valley-golf-course",
      "slugSource": "swap-golf-course",
      "status": "listed_only",
      "club": {
        "uuid": "35913666-43f2-4102-9824-a028c26904a4",
        "id": 4859,
        "name": "Mystery Valley Golf Course",
        "slug": "mystery-valley-golf-course",
        "city": "Lithonia",
        "province": "Georgia",
        "country": "United States",
        "address": "6094 Shadow Rock Dr",
        "phone": "(770) 469-6913",
        "website": "http://www.mysteryvalley.com",
        "postcode": "30058",
        "defaultAffiliationTypeId": 20258,
        "location": {
          "lat": 33.759001,
          "lon": -84.146303
        },
        "courses": [
          {
            "id": 5721,
            "name": "Mystery Valley",
            "holes": 18,
            "uuid": "3a3c75ed-1d2d-4bf4-a4ff-ba7486135ce7"
          }
        ]
      },
      "datesChecked": [
        "2026-02-18",
        "2026-02-14",
        "2026-02-21"
      ],
      "teeTimes": [
        0,
        0,
        0
      ]
    },
    {
      "input": "Fox Creek Golf Club",
      "city": "Smyrna",
      "slug": "fox-creek-golf-club-georgia",
      "slugSource": "name+state",
      "status": "listed_only",
      "club": {
        "uuid": "179fb9e1-19fc-46ce-a72d-ee3073e152f2",
        "id": 4769,
        "name": "Fox Creek Golf Club",
        "slug": "fox-creek-golf-club-georgia",
        "city": "Smyrna",
        "province": "Georgia",
        "country": "United States",
        "address": "1501 Windy Hill Rd",
        "phone": "(770) 435-1000",
        "website": "http://www.legacyfoxcreek.com",
        "postcode": "30080",
        "defaultAffiliationTypeId": 19898,
        "location": {
          "lat": 33.8945115,
          "lon": -84.5060145
        },
        "courses": [
          {
            "id": 5623,
            "name": "Fox Creek",
            "holes": 18,
            "uuid": "e4dec89d-9978-4c18-b647-45d42f90b064"
          }
        ]
      },
      "datesChecked": [
        "2026-02-18",
        "2026-02-14",
        "2026-02-21"
      ],
      "teeTimes": [
        0,
        0,
        0
      ]
    },
    {
      "input": "Legacy Golf Links",
      "city": "Smyrna",
      "slug": "legacy-golf-links-georgia",
      "slugSource": "name+state",
      "status": "listed_only",
      "club": {
        "uuid": "88f5c3e6-2846-4ea6-9472-6dfd56a21a5e",
        "id": 4843,
        "name": "Legacy Golf Links",
        "slug": "legacy-golf-links-georgia",
        "city": "Smyrna",
        "province": "Georgia",
        "country": "United States",
        "address": "1825 Windy Hill Rd",
        "phone": "(770) 434-6331",
        "website": "http://www.legacyfoxcreek.com",
        "postcode": "30080",
        "defaultAffiliationTypeId": 20194,
        "location": {
          "lat": 33.898123,
          "lon": -84.495851
        },
        "courses": [
          {
            "id": 5704,
            "name": "Legacy",
            "holes": 18,
            "uuid": "24cad1ed-75ac-47fd-b585-585f0fe5d2d3"
          }
        ]
      },
      "datesChecked": [
        "2026-02-18",
        "2026-02-14",
        "2026-02-21"
      ],
      "teeTimes": [
        0,
        0,
        0
      ]
    },
    {
      "input": "City Club Marietta",
      "city": "Marietta",
      "slug": "",
      "slugSource": "",
      "status": "miss"
    },
    {
      "input": "Dogwood Golf Club",
      "city": "Marietta",
      "slug": "dogwood-golf-course",
      "slugSource": "swap-golf-course",
      "status": "wrong_state",
      "club": {
        "uuid": "ea5642f1-3dbb-47fb-ab73-fcd8a734e451",
        "id": 11165,
        "name": "Dogwood Golf Course",
        "slug": "dogwood-golf-course",
        "city": "Diamond",
        "province": "Ohio",
        "country": "United States",
        "address": "2977 S Newton Falls Rd",
        "phone": "(330) 538-2305",
        "website": "",
        "postcode": "44412",
        "defaultAffiliationTypeId": 45482,
        "location": {
          "lat": 41.07625,
          "lon": -80.929092
        },
        "courses": [
          {
            "id": 12812,
            "name": "Dogwood",
            "holes": 18,
            "uuid": "103136b3-0ebd-47b0-8584-145e34882b0f"
          }
        ]
      }
    },
    {
      "input": "RiverPines Golf Course",
      "city": "Alpharetta",
      "slug": "",
      "slugSource": "",
      "status": "miss"
    },
    {
      "input": "Echelon Golf Club",
      "city": "Alpharetta",
      "slug": "",
      "slugSource": "",
      "status": "miss"
    },
    {
      "input": "St. Marlo Country Club",
      "city": "Duluth",
      "slug": "st-marlo-country-club",
      "slugSource": "name+state",
      "status": "listed_only",
      "club": {
        "uuid": "f75daed1-a10b-4bc6-bf34-1afd4e7fce3f",
        "id": 4934,
        "name": "St Marlo Country Club",
        "slug": "st-marlo-country-club",
        "city": "Duluth",
        "province": "Georgia",
        "country": "United States",
        "address": "7755 St Marlo CC Pkwy",
        "phone": "(770) 495-7725",
        "website": "http://www.stmarlo.com",
        "postcode": "30097",
        "defaultAffiliationTypeId": 20558,
        "location": {
          "lat": 34.06921,
          "lon": -84.148884
        },
        "courses": [
          {
            "id": 5805,
            "name": "St Marlo",
            "holes": 18,
            "uuid": "2a112553-aa96-4504-911e-0bd900b6bc4f"
          }
        ]
      },
      "datesChecked": [
        "2026-02-18",
        "2026-02-14",
        "2026-02-21"
      ],
      "teeTimes": [
        0,
        0,
        0
      ]
    },
    {
      "input": "Collins Hill Golf Club",
      "city": "Lawrenceville",
      "slug": "",
      "slugSource": "",
      "status": "miss"
    },
    {
      "input": "Trophy Club of Apalachee",
      "city": "Dacula",
      "slug": "",
      "slugSource": "",
      "status": "miss"
    },
    {
      "input": "Sugar Hill Golf Club",
      "city": "Sugar Hill",
      "slug": "sugar-hill-golf-club-georgia",
      "slugSource": "name+state",
      "status": "listed_only",
      "club": {
        "uuid": "3efca378-8d55-4340-82ef-34400358fb6e",
        "id": 4941,
        "name": "Sugar Hill Golf Club",
        "slug": "sugar-hill-golf-club-georgia",
        "city": "Sugar Hill",
        "province": "Georgia",
        "country": "United States",
        "address": "6094 Suwanee Dam Rd",
        "phone": "(770) 271-0519",
        "website": "http://www.sugarhillgolfclub.com",
        "postcode": "30518",
        "defaultAffiliationTypeId": 20586,
        "location": {
          "lat": 34.127199,
          "lon": -84.07501
        },
        "courses": [
          {
            "id": 5813,
            "name": "Sugar Hill",
            "holes": 18,
            "uuid": "8519b4e7-5ffc-4a74-982c-0db898fcf35c"
          }
        ]
      },
      "datesChecked": [
        "2026-02-18",
        "2026-02-14",
        "2026-02-21"
      ],
      "teeTimes": [
        0,
        0,
        0
      ]
    },
    {
      "input": "Bear's Best Atlanta",
      "city": "Suwanee",
      "slug": "",
      "slugSource": "",
      "status": "miss"
    },
    {
      "input": "Hamilton Mill Golf Club",
      "city": "Dacula",
      "slug": "hamilton-mill-golf-club",
      "slugSource": "name+state",
      "status": "listed_only",
      "club": {
        "uuid": "dba14e53-e90f-406d-b729-0d9fb2f9b3ae",
        "id": 4798,
        "name": "Hamilton Mill Country Club",
        "slug": "hamilton-mill-golf-club",
        "city": "Dacula",
        "province": "Georgia",
        "country": "United States",
        "address": "1995 Hamilton Mill Parkway",
        "phone": "(770) 945-4653",
        "website": "https://www.hamiltonmillcc.com/",
        "postcode": "30019",
        "defaultAffiliationTypeId": 20014,
        "location": {
          "lat": 34.0592638,
          "lon": -83.9131021
        },
        "courses": []
      }
    },
    {
      "input": "Cobblestone Golf Course",
      "city": "Acworth",
      "slug": "cobblestone-golf-course-georgia",
      "slugSource": "name+state",
      "status": "listed_only",
      "club": {
        "uuid": "5c4a8c69-94dd-43fa-ad4f-b75245c32ce5",
        "id": 4722,
        "name": "Cobblestone Golf Course",
        "slug": "cobblestone-golf-course-georgia",
        "city": "Acworth",
        "province": "Georgia",
        "country": "United States",
        "address": "4200 Nance Rd",
        "phone": "(770) 917-5151",
        "website": "http://www.legacy1030.com",
        "postcode": "30101",
        "defaultAffiliationTypeId": 19710,
        "location": {
          "lat": 34.042569,
          "lon": -84.672904
        },
        "courses": [
          {
            "id": 5574,
            "name": "Cobblestone",
            "holes": 18,
            "uuid": "621144a8-8a3f-4597-8c48-3b6672a275ba"
          }
        ]
      },
      "datesChecked": [
        "2026-02-18",
        "2026-02-14",
        "2026-02-21"
      ],
      "teeTimes": [
        0,
        0,
        0
      ]
    },
    {
      "input": "Brookstone Golf and Country Club",
      "city": "Acworth",
      "slug": "brookstone-golf-country-club",
      "slugSource": "no-and+state",
      "status": "listed_only",
      "club": {
        "uuid": "89c0755d-a761-451c-9714-de36fb232c0d",
        "id": 4682,
        "name": "Brookstone Golf \u0026 Country Club",
        "slug": "brookstone-golf-country-club",
        "city": "Acworth",
        "province": "Georgia",
        "country": "United States",
        "address": "5705 Brook Stone Dr",
        "phone": "(770) 425-8500",
        "website": "http://www.brookstonecc.com",
        "postcode": "30101",
        "defaultAffiliationTypeId": 19550,
        "location": {
          "lat": 33.993731,
          "lon": -84.723083
        },
        "courses": [
          {
            "id": 5522,
            "name": "Brookstone",
            "holes": 18,
            "uuid": "624683f8-673c-445d-be68-57d8b83b8ba0"
          }
        ]
      },
      "datesChecked": [
        "2026-02-18",
        "2026-02-14",
        "2026-02-21"
      ],
      "teeTimes": [
        0,
        0,
        0
      ]
    },
    {
      "input": "The Golf Club at Bradshaw Farm",
      "city": "Woodstock",
      "slug": "",
      "slugSource": "",
      "status": "miss"
    },
    {
      "input": "Eagle Watch Golf Club",
      "city": "Woodstock",
      "slug": "eagle-watch-golf-club",
      "slugSource": "name+state",
      "status": "listed_only",
      "club": {
        "uuid": "d7ab137e-f815-4b67-afb1-54358d0962e6",
        "id": 4748,
        "name": "Eagle Watch Golf Club",
        "slug": "eagle-watch-golf-club",
        "city": "Woodstock",
        "province": "Georgia",
        "country": "United States",
        "address": "3055 Eagle Watch Dr",
        "phone": "(770) 591-1000",
        "website": "",
        "postcode": "30189",
        "defaultAffiliationTypeId": 19814,
        "location": {
          "lat": 34.136688,
          "lon": -84.557154
        },
        "courses": [
          {
            "id": 5600,
            "name": "Eagle Watch",
            "holes": 18,
            "uuid": "0aefb9e2-5e24-4bb3-adef-a424a5e656bc"
          }
        ]
      },
      "datesChecked": [
        "2026-02-18",
        "2026-02-14",
        "2026-02-21"
      ],
      "teeTimes": [
        0,
        0,
        0
      ]
    },
    {
      "input": "Towne Lake Hills Golf Club",
      "city": "Woodstock",
      "slug": "towne-lake-hills-golf-club",
      "slugSource": "name+state",
      "status": "listed_only",
      "club": {
        "uuid": "9132f19d-b738-45b4-8768-6034a0460740",
        "id": 4974,
        "name": "Towne Lake Hills Golf Club",
        "slug": "towne-lake-hills-golf-club",
        "city": "Woodstock",
        "province": "Georgia",
        "country": "United States",
        "address": "1003 Towne Lake Hills E",
        "phone": "(770) 592-9969",
        "website": "http://www.townelakehills.com",
        "postcode": "30189",
        "defaultAffiliationTypeId": 20718,
        "location": {
          "lat": 34.117673,
          "lon": -84.553342
        },
        "courses": [
          {
            "id": 5854,
            "name": "Towne Lake Hills",
            "holes": 18,
            "uuid": "a674f9ab-46b3-4e01-8af6-2ef93d294ab3"
          }
        ]
      },
      "datesChecked": [
        "2026-02-18",
        "2026-02-14",
        "2026-02-21"
      ],
      "teeTimes": [
        0,
        0,
        0
      ]
    },
    {
      "input": "Woodmont Golf and Country Club",
      "city": "Canton",
      "slug": "woodmont-golf-country-club",
      "slugSource": "no-and+state",
      "status": "confirmed",
      "club": {
        "uuid": "878d378b-197d-4042-836e-48a9a9d27787",
        "id": 5004,
        "name": "Woodmont Golf \u0026 Country Club",
        "slug": "woodmont-golf-country-club",
        "city": "Canton",
        "province": "Georgia",
        "country": "United States",
        "address": "3105 Gaddis Road",
        "phone": "(770) 345-9260",
        "website": "http://woodmontgolfclub.com",
        "postcode": "30115",
        "defaultAffiliationTypeId": 20838,
        "location": {
          "lat": 34.2316,
          "lon": -84.35375
        },
        "courses": [
          {
            "id": 5888,
            "name": "Woodmont Golf \u0026 Country Club",
            "holes": 18,
            "uuid": "9ce1d2f3-c86d-42b8-b358-50dc8af13c5d"
          }
        ]
      },
      "datesChecked": [
        "2026-02-18",
        "2026-02-14",
        "2026-02-21"
      ],
      "teeTimes": [
        21,
        0,
        4
      ]
    },
    {
      "input": "Canton Golf Club",
      "city": "Canton",
      "slug": "canton-country-club",
      "slugSource": "swap-country-club",
      "status": "wrong_state",
      "club": {
        "uuid": "85ae15cb-42da-4db2-9f5b-8d1c826da10c",
        "id": 8833,
        "name": "Canton Country Club",
        "slug": "canton-country-club-mississippi",
        "city": "Canton",
        "province": "Mississippi",
        "country": "United States",
        "address": "183 Country Club Dr",
        "phone": "(601) 859-6359",
        "website": "http://www.countryclubofcanton.com",
        "postcode": "39046",
        "defaultAffiliationTypeId": 36154,
        "location": {
          "lat": 32.609967,
          "lon": -89.994566
        },
        "courses": [
          {
            "id": 10185,
            "name": "Canton",
            "holes": 18,
            "uuid": "76077155-2825-446a-9242-a094c0de2b0f"
          }
        ]
      }
    },
    {
      "input": "Fairways of Canton",
      "city": "Canton",
      "slug": "",
      "slugSource": "",
      "status": "miss"
    },
    {
      "input": "Cherokee Run Golf Club",
      "city": "Conyers",
      "slug": "cherokee-run-golf-club",
      "slugSource": "name+state",
      "status": "listed_only",
      "club": {
        "uuid": "153c7744-87f4-43d5-bab4-691da2e78185",
        "id": 4713,
        "name": "Cherokee Run Golf Club",
        "slug": "cherokee-run-golf-club",
        "city": "Conyers",
        "province": "Georgia",
        "country": "United States",
        "address": "1595 Centennial Olympic Pkwy",
        "phone": "(770) 785-7904",
        "website": "http://www.cherokeerun.com",
        "postcode": "30013",
        "defaultAffiliationTypeId": 19674,
        "location": {
          "lat": 33.678605,
          "lon": -83.946991
        },
        "courses": [
          {
            "id": 5562,
            "name": "Cherokee Run",
            "holes": 18,
            "uuid": "b75dd280-89f3-42d4-b8db-3e2799f64d01"
          }
        ]
      },
      "datesChecked": [
        "2026-02-18",
        "2026-02-14",
        "2026-02-21"
      ],
      "teeTimes": [
        0,
        0,
        0
      ]
    },
    {
      "input": "Pinetree Country Club",
      "city": "Kennesaw",
      "slug": "pinetree-country-club",
      "slugSource": "name+state",
      "status": "listed_only",
      "club": {
        "uuid": "658bb753-3b17-48ea-8b99-709a1c93f599",
        "id": 4891,
        "name": "Pinetree Country Club",
        "slug": "pinetree-country-club",
        "city": "Kennesaw",
        "province": "Georgia",
        "country": "United States",
        "address": "3400 McCollum Pkwy",
        "phone": "(770) 428-0553",
        "website": "",
        "postcode": "30144",
        "defaultAffiliationTypeId": 20386,
        "location": {
          "lat": 34.037205,
          "lon": -84.593515
        },
        "courses": [
          {
            "id": 5755,
            "name": "Pinetree",
            "holes": 18,
            "uuid": "89f4dfe7-6fd2-4ed0-8a35-38972feae456"
          }
        ]
      },
      "datesChecked": [
        "2026-02-18",
        "2026-02-14",
        "2026-02-21"
      ],
      "teeTimes": [
        0,
        0,
        0
      ]
    },
    {
      "input": "Chateau Elan Golf Club",
      "city": "Braselton",
      "slug": "chateau-elan-golf-club",
      "slugSource": "name+state",
      "status": "listed_only",
      "club": {
        "uuid": "703255cf-39d2-4674-89f6-e692fc6eb578",
        "id": 4707,
        "name": "Chateau Elan Golf Club ",
        "slug": "chateau-elan-golf-club",
        "city": "Braselton",
        "province": "Georgia",
        "country": "United States",
        "address": "6060 Golf Club Dr",
        "phone": "(678) 425-6050",
        "website": "http://www.chateauelan.com",
        "postcode": "30517",
        "defaultAffiliationTypeId": 19650,
        "location": {
          "lat": 34.1129119,
          "lon": -83.8220616
        },
        "courses": [
          {
            "id": 5556,
            "name": "Woodlands ",
            "holes": 18,
            "uuid": "411c31a8-8983-451e-8304-c03e4879c47f"
          },
          {
            "id": 5555,
            "name": "Par 3",
            "holes": 9,
            "uuid": "89987ef3-aa24-4e7f-9c3a-b19f6b3c3275"
          },
          {
            "id": 5554,
            "name": "Legends",
            "holes": 18,
            "uuid": "2e6aed31-2562-4f7d-9799-714fadb88992"
          },
          {
            "id": 5553,
            "name": "Chateau Elan",
            "holes": 18,
            "uuid": "8e9b51d1-3594-4454-97fa-08ac6fd7be4c"
          }
        ]
      },
      "datesChecked": [
        "2026-02-18",
        "2026-02-14",
        "2026-02-21"
      ],
      "teeTimes": [
        0,
        0,
        0
      ]
    },
    {
      "input": "Lanier Golf Club",
      "city": "Cumming",
      "slug": "lanier-golf-club",
      "slugSource": "name+state",
      "status": "listed_only",
      "club": {
        "uuid": "84022a07-31ec-429e-91b9-da516cc9827c",
        "id": 4839,
        "name": "Lanier Golf Club",
        "slug": "lanier-golf-club",
        "city": "Cumming",
        "province": "Georgia",
        "country": "United States",
        "address": "Buford Dam Rd",
        "phone": "(770) 887-6114",
        "website": "http://www.laniergolfclub.com",
        "postcode": "30130",
        "defaultAffiliationTypeId": 20178,
        "location": {
          "lat": 34.183735,
          "lon": -84.102955
        },
        "courses": [
          {
            "id": 5700,
            "name": "Lanier",
            "holes": 18,
            "uuid": "71dd7ac3-dbf6-4c62-9689-956bb5fec2af"
          }
        ]
      },
      "datesChecked": [
        "2026-02-18",
        "2026-02-14",
        "2026-02-21"
      ],
      "teeTimes": [
        0,
        0,
        0
      ]
    },
    {
      "input": "Reunion Country Club",
      "city": "Hoschton",
      "slug": "reunion-country-club",
      "slugSource": "name+state",
      "status": "listed_only",
      "club": {
        "uuid": "ca4d18be-e318-42e3-939b-8157c6ff98be",
        "id": 4903,
        "name": "Reunion Country Club",
        "slug": "reunion-country-club",
        "city": "Hoschton",
        "province": "Georgia",
        "country": "United States",
        "address": "5609 Grand Reunion Dr",
        "phone": "(770) 967-8300",
        "website": "http://www.reuniongolfclub.com",
        "postcode": "30548",
        "defaultAffiliationTypeId": 20434,
        "location": {
          "lat": 34.106842,
          "lon": -83.769891
        },
        "courses": [
          {
            "id": 5767,
            "name": "Reunion",
            "holes": 18,
            "uuid": "5b0a752a-f158-4361-992c-6a42fe2dd259"
          }
        ]
      },
      "datesChecked": [
        "2026-02-18",
        "2026-02-14",
        "2026-02-21"
      ],
      "teeTimes": [
        0,
        0,
        0
      ]
    },
    {
      "input": "Lake Arrowhead Golf Course",
      "city": "Waleska",
      "slug": "lake-arrowhead-golf-club",
      "slugSource": "swap-golf-club",
      "status": "wrong_state",
      "club": {
        "uuid": "f356fea6-ab54-411c-948f-8ea20c9b2278",
        "id": 15085,
        "name": "Lake Arrowhead Golf Club",
        "slug": "lake-arrowhead-golf-club",
        "city": "Nekoosa",
        "province": "Wisconsin",
        "country": "United States",
        "address": "1195 Apache Ln",
        "phone": "(715) 325-2929",
        "website": "http://www.wctc.net/lake.arrowhead",
        "postcode": "54457",
        "defaultAffiliationTypeId": 61162,
        "location": {
          "lat": 44.192495,
          "lon": -89.817839
        },
        "courses": [
          {
            "id": 17332,
            "name": "The Pines",
            "holes": 18,
            "uuid": "44beb5a1-1395-4b6a-b3c7-0fb1291a2402"
          },
          {
            "id": 17331,
            "name": "The Lakes",
            "holes": 18,
            "uuid": "8e1d71f7-81b3-4fae-9e05-bd8b2410de07"
          }
        ]
      }
    },
    {
      "input": "Stone Mountain Golf Club",
      "city": "Stone Mountain",
      "slug": "stone-mountain-golf-club",
      "slugSource": "name+state",
      "status": "listed_only",
      "club": {
        "uuid": "98fe3fff-fbf2-45f3-96f6-9063ed0ccd4b",
        "id": 4937,
        "name": "Stone Mountain Golf Club",
        "slug": "stone-mountain-golf-club",
        "city": "Stone Mountain",
        "province": "Georgia",
        "country": "United States",
        "address": "1145 Stonewall Jackson Dr",
        "phone": "(770) 465-3278",
        "website": "http://www.stonemountaingolf.com",
        "postcode": "30086",
        "defaultAffiliationTypeId": 20570,
        "location": {
          "lat": 33.80224,
          "lon": -84.12381
        },
        "courses": [
          {
            "id": 5809,
            "name": "Stonemont",
            "holes": 18,
            "uuid": "4b19efca-c03c-443f-a479-6bf5f2c2f1ff"
          },
          {
            "id": 5808,
            "name": "Lakemont",
            "holes": 18,
            "uuid": "454d1053-6155-4b32-a672-cca2a3222fa9"
          }
        ]
      },
      "datesChecked": [
        "2026-02-18",
        "2026-02-14",
        "2026-02-21"
      ],
      "teeTimes": [
        0,
        0,
        0
      ]
    },
    {
      "input": "Ashton Hills Golf Club",
      "city": "Covington",
      "slug": "",
      "slugSource": "",
      "status": "miss"
    },
    {
      "input": "The Oaks Course",
      "city": "Covington",
      "slug": "the-oaks-course",
      "slugSource": "name+state",
      "status": "listed_only",
      "club": {
        "uuid": "d5e6043a-79ff-4e9d-9f08-57541c0f844c",
        "id": 4964,
        "name": "The Oaks Course",
        "slug": "the-oaks-course",
        "city": "Covington",
        "province": "Georgia",
        "country": "United States",
        "address": "11240 Brown Bridge Rd",
        "phone": "(770) 786-3801",
        "website": "http://www.golfoaks.com",
        "postcode": "30014",
        "defaultAffiliationTypeId": 20678,
        "location": {
          "lat": 33.584309,
          "lon": -83.908339
        },
        "courses": [
          {
            "id": 5844,
            "name": "The Oaks",
            "holes": 18,
            "uuid": "851d2f7d-0d18-4226-8f0e-ea2993b819f9"
          }
        ]
      },
      "datesChecked": [
        "2026-02-18",
        "2026-02-14",
        "2026-02-21"
      ],
      "teeTimes": [
        0,
        0,
        0
      ]
    },
    {
      "input": "Honey Creek Golf and Country Club",
      "city": "Conyers",
      "slug": "honey-creek-golf-country-club",
      "slugSource": "no-and+state",
      "status": "listed_only",
      "club": {
        "uuid": "4bcd708c-2c46-4ddc-91b6-8a00cc375a7a",
        "id": 4813,
        "name": "Honey Creek Golf \u0026 Country Club",
        "slug": "honey-creek-golf-country-club",
        "city": "Conyers",
        "province": "Georgia",
        "country": "United States",
        "address": "635 Clubhouse Dr SE",
        "phone": "(770) 483-6343",
        "website": "http://www.honeycreekgolf.com",
        "postcode": "30094",
        "defaultAffiliationTypeId": 20074,
        "location": {
          "lat": 33.587127,
          "lon": -84.025634
        },
        "courses": [
          {
            "id": 5669,
            "name": "Honey Creek ",
            "holes": 18,
            "uuid": "ea158a18-7f76-4b59-92d5-f1c1120de890"
          }
        ]
      },
      "datesChecked": [
        "2026-02-18",
        "2026-02-14",
        "2026-02-21"
      ],
      "teeTimes": [
        0,
        0,
        0
      ]
    },
    {
      "input": "Cedar Lake Golf Club",
      "city": "Loganville",
      "slug": "cedar-lake-golf-club",
      "slugSource": "name+state",
      "status": "listed_only",
      "club": {
        "uuid": "f3dcc73d-d161-43d2-95f4-a51117d14d24",
        "id": 4701,
        "name": "Cedar Lake Golf Club",
        "slug": "cedar-lake-golf-club",
        "city": "Loganville",
        "province": "Georgia",
        "country": "United States",
        "address": "5720 Sharon Church Rd",
        "phone": "(770) 466-4043",
        "website": "http://www.cedarlakegolf.com",
        "postcode": "30052",
        "defaultAffiliationTypeId": 19626,
        "location": {
          "lat": 33.774843,
          "lon": -83.918907
        },
        "courses": [
          {
            "id": 5547,
            "name": "Cedar Lake",
            "holes": 18,
            "uuid": "87db0aca-1302-4c54-bb94-b9fdde52e573"
          }
        ]
      },
      "datesChecked": [
        "2026-02-18",
        "2026-02-14",
        "2026-02-21"
      ],
      "teeTimes": [
        0,
        0,
        0
      ]
    },
    {
      "input": "Springbrook Golf Club",
      "city": "Lawrenceville",
      "slug": "springbrook-golf-club",
      "slugSource": "name",
      "status": "wrong_state",
      "club": {
        "uuid": "01f6a25f-7a2a-4efa-982f-eb812aa854c1",
        "id": 11541,
        "name": "Springbrook Golf Club",
        "slug": "springbrook-golf-club",
        "city": "Lima",
        "province": "Ohio",
        "country": "United States",
        "address": "4200 Ottawa Rd",
        "phone": "(419) 225-8037",
        "website": "",
        "postcode": "45801",
        "defaultAffiliationTypeId": 46986,
        "location": {
          "lat": 40.798366,
          "lon": -84.107372
        },
        "courses": [
          {
            "id": 13236,
            "name": "Springbrook",
            "holes": 18,
            "uuid": "8a3e4b09-7952-4a55-a23f-0652721df240"
          }
        ]
      }
    },
    {
      "input": "SummerGrove Golf Club",
      "city": "Newnan",
      "slug": "",
      "slugSource": "",
      "status": "miss"
    },
    {
      "input": "Coweta Club at Arbor Springs",
      "city": "Newnan",
      "slug": "",
      "slugSource": "",
      "status": "miss"
    },
    {
      "input": "Hawks Creek Golf Club",
      "city": "Westmoreland",
      "slug": "hawks-creek-golf-club",
      "slugSource": "name",
      "status": "wrong_state",
      "club": {
        "uuid": "5ec3a081-d3ea-47fc-8ad7-5254954425d5",
        "id": 13655,
        "name": "Hawks Creek Golf Club",
        "slug": "hawks-creek-golf-club",
        "city": "Fort Worth",
        "province": "Texas",
        "country": "United States",
        "address": "6520 White Settlement Rd",
        "phone": "(817) 738-8402",
        "website": "",
        "postcode": "76114",
        "defaultAffiliationTypeId": 55442,
        "location": {
          "lat": 32.760173,
          "lon": -97.432752
        },
        "courses": [
          {
            "id": 15647,
            "name": "Hawks Creek",
            "holes": 18,
            "uuid": "b1fc73dc-982b-4094-b10f-2ab2239f6d29"
          }
        ]
      }
    },
    {
      "input": "Hampton Golf Club",
      "city": "Hampton",
      "slug": "hampton-golf-club",
      "slugSource": "name",
      "status": "wrong_state",
      "club": {
        "uuid": "eaed5715-1bbd-4039-911f-ac126107e6f8",
        "id": 7922,
        "name": "Hampton Golf Club",
        "slug": "hampton-golf-club",
        "city": "Rochester Hills",
        "province": "Michigan",
        "country": "United States",
        "address": "2600 Club Dr",
        "phone": "(248) 852-3250",
        "website": "http://www.golfthehampton.com",
        "postcode": "48307",
        "defaultAffiliationTypeId": 32510,
        "location": {
          "lat": 42.642697,
          "lon": -83.120622
        },
        "courses": [
          {
            "id": 9073,
            "name": "Hampton",
            "holes": 9,
            "uuid": "d37005fd-3869-4148-ac63-9d8126019ce9"
          }
        ]
      }
    },
    {
      "input": "Crystal Lake Golf and Country Club",
      "city": "Hampton",
      "slug": "crystal-lake-golf-country-club",
      "slugSource": "no-and",
      "status": "wrong_state",
      "club": {
        "uuid": "2e17f528-163c-46b9-b7d3-b0b261723da2",
        "id": 1752,
        "name": "Crystal Lake Golf \u0026 Country Club",
        "slug": "crystal-lake-golf-country-club",
        "city": "Stenen",
        "province": "Saskatchewan",
        "country": "Canada",
        "address": "Hwy 9",
        "phone": "(306) 548-5522",
        "website": "",
        "postcode": "S0A 3X0",
        "defaultAffiliationTypeId": 7725,
        "location": {
          "lat": 51.8993,
          "lon": -102.3789
        },
        "courses": [
          {
            "id": 2031,
            "name": "Crystal Lake",
            "holes": 9,
            "uuid": "53966e89-da16-4919-bc1c-e0741abe6163"
          }
        ]
      }
    },
    {
      "input": "Panola Mountain Golf Course",
      "city": "Ellenwood",
      "slug": "",
      "slugSource": "",
      "status": "miss"
    },
    {
      "input": "Southerness Golf Course",
      "city": "Stockbridge",
      "slug": "",
      "slugSource": "",
      "status": "miss"
    },
    {
      "input": "The Creek at Hard Labor",
      "city": "Rutledge",
      "slug": "",
      "slugSource": "",
      "status": "miss"
    },
    {
      "input": "The Frog Golf Club",
      "city": "Villa Rica",
      "slug": "",
      "slugSource": "",
      "status": "miss"
    },
    {
      "input": "Mirror Lake Golf Club",
      "city": "Villa Rica",
      "slug": "mirror-lake-golf-club",
      "slugSource": "name+state",
      "status": "listed_only",
      "club": {
        "uuid": "ccdd67c2-489b-4f25-9d87-39c2c1f3a226",
        "id": 4857,
        "name": "Mirror Lake Golf Club",
        "slug": "mirror-lake-golf-club",
        "city": "Villa Rica",
        "province": "Georgia",
        "country": "United States",
        "address": "1000 Canongate Blvd",
        "phone": "(770) 459-5599",
        "website": "http://www.canongategolf.com",
        "postcode": "30180",
        "defaultAffiliationTypeId": 20250,
        "location": {
          "lat": 33.74543,
          "lon": -84.8905
        },
        "courses": [
          {
            "id": 5719,
            "name": "Mountain",
            "holes": 18,
            "uuid": "b8174936-e6c7-4a3e-bff3-fcbf5904bc19"
          },
          {
            "id": 5718,
            "name": "Lake",
            "holes": 18,
            "uuid": "2d9b673d-405e-44b8-b00e-a3081f954f19"
          }
        ]
      },
      "datesChecked": [
        "2026-02-18",
        "2026-02-14",
        "2026-02-21"
      ],
      "teeTimes": [
        0,
        0,
        0
      ]
    }
  ],
  "state": "GA",
  "timestamp": "2026-02-14T17:09:06-07:00",
  "totalInput": 52,
  "validationDates": [
    "2026-02-18",
    "2026-02-14",
    "2026-02-21"
  ],
  "wrongState": 8
}