{
  "confirmed": 39,
  "elapsed": "3m51.291565083s",
  "errors": 0,
  "listedOnly": 24,
  "misses": 29,
  "platform": "teeitup",
  "results": [
    {
      "input": "Aguila Golf Course",
      "city": "Phoenix",
      "alias": "aguila-golf-course",
      "aliasSource": "exact",
      "status": "confirmed",
      "facility": {
        "id": 287,
        "courseId": "54f14b510c8ad60378b00df6",
        "name": "Aguila Golf Course",
        "address": "8440 S. 35th Avenue, Laveen, AZ 85339, US",
        "locality": "Laveen",
        "region": "AZ",
        "country": "US",
        "location": [
          -112.134704,
          33.369882
        ],
        "timeZone": "America/Phoenix"
      },
      "datesChecked": [
        "2026-02-18",
        "2026-02-14",
        "2026-02-21"
      ],
      "teeTimes": [
        2,
        0,
        3
      ]
    },
    {
      "input": "Cave Creek Golf Course",
      "city": "Phoenix",
      "alias": "cave-creek-golf-course",
      "aliasSource": "exact",
      "status": "confirmed",
      "facility": {
        "id": 288,
        "courseId": "54f14b520c8ad60378b00df8",
        "name": "Cave Creek Golf Course",
        "address": "15202 N. 19th Ave., Phoenix, AZ 85023, US",
        "locality": "Phoenix",
        "region": "AZ",
        "country": "US",
        "location": [
          -112.099504,
          33.623869
        ],
        "timeZone": "America/Phoenix"
      },
      "datesChecked": [
        "2026-02-18",
        "2026-02-14",
        "2026-02-21"
      ],
      "teeTimes": [
        2,
        0,
        2
      ]
    },
    {
      "input": "Encanto Golf Course",
      "city": "Phoenix",
      "alias": "encanto-golf-course",
      "aliasSource": "exact",
      "status": "confirmed",
      "facility": {
        "id": 289,
        "courseId": "54f14b520c8ad60378b00dfa",
        "name": "Encanto Golf Course",
        "address": "2775 N 15th Ave, Phoenix, AZ 85007, US",
        "locality": "Phoenix",
        "region": "AZ",
        "country": "US",
        "location": [
          -112.091268,
          33.479279
        ],
        "timeZone": "America/Phoenix"
      },
      "datesChecked": [
        "2026-02-18",
        "2026-02-14",
        "2026-02-21"
      ],
      "teeTimes": [
        8,
        7,
        10
      ]
    },
    {
      "input": "Encanto 9-Hole Golf Course",
      "city": "Phoenix",
      "alias": "encanto-9-hole-golf-course",
      "aliasSource": "",
      "status": "miss"
    },
    {
      "input": "Palo Verde Golf Course",
      "city": "Phoenix",
      "alias": "palo-verde",
      "aliasSource": "base-only",
      "status": "confirmed",
      "facility": {
        "id": 3209,
        "courseId": "54f14c690c8ad60378b024e3",
        "name": "Palo Verde",
        "address": "6215 N. 15th Ave, Phoenix, AZ 85015, US",
        "locality": "Phoenix",
        "region": "AZ",
        "country": "US",
        "location": [
          -112.101726,
          33.508272
        ],
        "timeZone": "America/Phoenix"
      },
      "datesChecked": [
        "2026-02-18",
        "2026-02-14",
        "2026-02-21"
      ],
      "teeTimes": [
        2,
        0,
        2
      ]
    },
    {
      "input": "Papago Golf Course",
      "city": "Phoenix",
      "alias": "papago-golf-course",
      "aliasSource": "exact",
      "status": "listed_only",
      "facility": {
        "id": 291,
        "courseId": "54f14b520c8ad60378b00e00",
        "name": "Papago Golf Club",
        "address": "5595 E Karsten Wy, Phoenix, AZ 85008, US",
        "locality": "Phoenix",
        "region": "AZ",
        "country": "US",
        "location": [
          -111.963013,
          33.462116
        ],
        "timeZone": "America/Phoenix"
      },
      "datesChecked": [
        "2026-02-18",
        "2026-02-14",
        "2026-02-21"
      ],
      "teeTimes": [
        0,
        0,
        0
      ]
    },
    {
      "input": "Maryvale Golf Course",
      "city": "Phoenix",
      "alias": "maryvale-golf-course",
      "aliasSource": "",
      "status": "miss"
    },
    {
      "input": "Coronado Golf Course",
      "city": "Scottsdale",
      "alias": "coronado-golf-course",
      "aliasSource": "exact",
      "status": "confirmed",
      "facility": {
        "id": 5042,
        "courseId": "54f14d270c8ad60378b035db",
        "name": "Coronado Golf Course",
        "address": "2829 N Miller Rd, Scottsdale, AZ 85257 US",
        "locality": "Scottsdale",
        "region": "AZ",
        "country": "US",
        "location": [
          -111.917532,
          33.479391
        ],
        "timeZone": "America/Phoenix"
      },
      "datesChecked": [
        "2026-02-18",
        "2026-02-14",
        "2026-02-21"
      ],
      "teeTimes": [
        2,
        1,
        2
      ]
    },
    {
      "input": "Continental Golf Club",
      "city": "Scottsdale",
      "alias": "continental-country-club",
      "aliasSource": "swap-country-club",
      "status": "listed_only",
      "facility": {
        "id": 9508,
        "courseId": "54f14efc0c8ad60378b05b55",
        "name": "Continental Country Club",
        "address": "2380 N Oakmont Dr, Flagstaff, AZ 86004 US",
        "locality": "Flagstaff",
        "region": "AZ",
        "country": "US",
        "location": [
          -111.579617,
          35.201733
        ],
        "timeZone": "America/Phoenix"
      },
      "datesChecked": [
        "2026-02-18",
        "2026-02-14",
        "2026-02-21"
      ],
      "teeTimes": [
        0,
        0,
        0
      ]
    },
    {
      "input": "Ken McDonald Golf Course",
      "city": "Tempe",
      "alias": "ken-mcdonald-golf-course",
      "aliasSource": "exact",
      "status": "listed_only",
      "facility": {
        "id": 3632,
        "courseId": "54f14c8d0c8ad60378b02834",
        "name": "Ken McDonald Golf Course",
        "address": "800 East Divot Drive, Tempe, AZ 85283 US",
        "locality": "Tempe",
        "region": "AZ",
        "country": "US",
        "location": [
          -111.930622,
          33.355603
        ],
        "timeZone": "America/Phoenix"
      },
      "datesChecked": [
        "2026-02-18",
        "2026-02-14",
        "2026-02-21"
      ],
      "teeTimes": [
        0,
        0,
        0
      ]
    },
    {
      "input": "Rolling Hills Golf Course",
      "city": "Tempe",
      "alias": "rolling-hills-golf",
      "aliasSource": "swap-golf",
      "status": "listed_only",
      "facility": {
        "id": 13139,
        "courseId": "55373f09b9208b0300c48a7f",
        "name": "Rolling Hills Golf Course",
        "address": "8900 E. 29th St., Tucson, AZ 85710, US",
        "locality": "Tucson",
        "region": "AZ",
        "country": "US",
        "location": [
          -110.82923,
          32.21416
        ],
        "timeZone": "America/Phoenix"
      },
      "datesChecked": [
        "2026-02-18",
        "2026-02-14",
        "2026-02-21"
      ],
      "teeTimes": [
        0,
        0,
        0
      ]
    },
    {
      "input": "Dobson Ranch Golf Course",
      "city": "Mesa",
      "alias": "dobson-ranch",
      "aliasSource": "base-only",
      "status": "confirmed",
      "facility": {
        "id": 6501,
        "courseId": "54f14dca0c8ad60378b0437d",
        "name": "Dobson Ranch Golf Course",
        "address": "2155 S Dobson Rd, Mesa, AZ 85202, US",
        "locality": "Mesa",
        "region": "AZ",
        "country": "US",
        "location": [
          -111.8782339,
          33.3751825
        ],
        "timeZone": "America/Phoenix"
      },
      "datesChecked": [
        "2026-02-18",
        "2026-02-14",
        "2026-02-21"
      ],
      "teeTimes": [
        19,
        20,
        27
      ]
    },
    {
      "input": "Ak-Chin Southern Dunes Golf Club",
      "city": "Maricopa",
      "alias": "ak-chin-southern-dunes-golf-club",
      "aliasSource": "exact",
      "status": "confirmed",
      "facility": {
        "id": 3608,
        "courseId": "54f14c8c0c8ad60378b0280c",
        "name": "Ak-Chin Southern Dunes Golf Club",
        "address": "48456 West Highway 238, Maricopa, AZ 85139, US",
        "locality": "Maricopa",
        "region": "AZ",
        "country": "US",
        "location": [
          -112.088871,
          33.082301
        ],
        "timeZone": "America/Phoenix"
      },
      "datesChecked": [
        "2026-02-18",
        "2026-02-14",
        "2026-02-21"
      ],
      "teeTimes": [
        37,
        17,
        17
      ]
    },
    {
      "input": "Arizona Biltmore Golf Club",
      "city": "Phoenix",
      "alias": "arizona-biltmore-golf-club",
      "aliasSource": "",
      "status": "miss"
    },
    {
      "input": "Arizona Grand Golf Course",
      "city": "Phoenix",
      "alias": "arizona-grand-golf-course",
      "aliasSource": "exact",
      "status": "confirmed",
      "facility": {
        "id": 12,
        "courseId": "54f146e37bb759125cba2114",
        "name": "Arizona Grand Golf Course",
        "address": "8000 S. Arizona Grand Pkwy., Phoenix, AZ 85044, US",
        "locality": "Phoenix",
        "region": "AZ",
        "country": "US",
        "location": [
          -111.971668,
          33.375756
        ],
        "timeZone": "America/Phoenix"
      },
      "datesChecked": [
        "2026-02-18",
        "2026-02-14",
        "2026-02-21"
      ],
      "teeTimes": [
        49,
        28,
        37
      ]
    },
    {
      "input": "ASU Karsten Golf Course",
      "city": "Tempe",
      "alias": "asu-karsten-golf-course",
      "aliasSource": "exact",
      "status": "listed_only",
      "facility": {
        "id": 252,
        "courseId": "54f14b4b0c8ad60378b00da4",
        "name": "ASU Karsten Golf Course",
        "address": "1125 E. Rio Salado Parkway, Tempe, AZ 85281 US",
        "locality": "Tempe",
        "region": "AZ",
        "country": "US",
        "location": [
          -111.924088,
          33.424281
        ],
        "timeZone": "America/Phoenix"
      },
      "datesChecked": [
        "2026-02-18",
        "2026-02-14",
        "2026-02-21"
      ],
      "teeTimes": [
        0,
        0,
        0
      ]
    },
    {
      "input": "Augusta Ranch Golf Club",
      "city": "Mesa",
      "alias": "augusta-ranch-golf-club",
      "aliasSource": "exact",
      "status": "listed_only",
      "facility": {
        "id": 52,
        "courseId": "54f14b300c8ad60378b00bc1",
        "name": "Augusta Ranch Golf Club",
        "address": "2401 S. Lansing, Mesa, AZ 85209 US",
        "locality": "Mesa",
        "region": "AZ",
        "country": "US",
        "location": [
          -111.632681,
          33.374262
        ],
        "timeZone": "America/Phoenix"
      },
      "datesChecked": [
        "2026-02-18",
        "2026-02-14",
        "2026-02-21"
      ],
      "teeTimes": [
        0,
        0,
        0
      ]
    },
    {
      "input": "Bear Creek Golf Complex",
      "city": "Chandler",
      "alias": "bear-creek-golf-complex",
      "aliasSource": "exact",
      "status": "listed_only",
      "facility": {
        "id": 62,
        "courseId": "54f14b330c8ad60378b00bdb",
        "name": "Bear Creek - Bear Championship Course",
        "address": "500 E. Riggs Rd., Chandler, AZ 85249 US",
        "locality": "Chandler",
        "region": "AZ",
        "country": "US",
        "location": [
          -111.833696,
          33.218369
        ],
        "timeZone": "America/Phoenix"
      },
      "datesChecked": [
        "2026-02-18",
        "2026-02-14",
        "2026-02-21"
      ],
      "teeTimes": [
        0,
        0,
        0
      ]
    },
    {
      "input": "Bellair Golf Club",
      "city": "Glendale",
      "alias": "bellair-golf-club",
      "aliasSource": "",
      "status": "miss"
    },
    {
      "input": "Camelback Golf Club",
      "city": "Scottsdale",
      "alias": "camelback-golf-club",
      "aliasSource": "",
      "status": "miss"
    },
    {
      "input": "Coldwater Golf Club",
      "city": "Avondale",
      "alias": "coldwater-golf-club",
      "aliasSource": "exact",
      "status": "confirmed",
      "facility": {
        "id": 26,
        "courseId": "54f147c87bb759125cba212b",
        "name": "Coldwater Golf Club",
        "address": "100 N Clubhouse Dr, Avondale, AZ 85323, US",
        "locality": "Avondale",
        "region": "AZ",
        "country": "US",
        "location": [
          -112.31852759999998,
          33.4457485
        ],
        "timeZone": "America/Phoenix"
      },
      "datesChecked": [
        "2026-02-18",
        "2026-02-14",
        "2026-02-21"
      ],
      "teeTimes": [
        58,
        60,
        59
      ]
    },
    {
      "input": "Coyote Lakes Golf Club",
      "city": "Surprise",
      "alias": "coyote-lakes-golf-club",
      "aliasSource": "exact",
      "status": "listed_only",
      "facility": {
        "id": 427,
        "courseId": "54f14b640c8ad60378b00f2c",
        "name": "Coyote Lakes Golf Club",
        "address": "18800 N. Coyote Lakes Parkway, Surprise, AZ 85374 US",
        "locality": "Surprise",
        "region": "AZ",
        "country": "US",
        "location": [
          -112.307352,
          33.654044
        ],
        "timeZone": "America/Phoenix"
      },
      "datesChecked": [
        "2026-02-18",
        "2026-02-14",
        "2026-02-21"
      ],
      "teeTimes": [
        0,
        0,
        0
      ]
    },
    {
      "input": "Desert Canyon Golf Club",
      "city": "Fountain Hills",
      "alias": "desert-canyon-golf-club",
      "aliasSource": "exact",
      "status": "listed_only",
      "facility": {
        "id": 548,
        "courseId": "54f14b730c8ad60378b01046",
        "name": "Desert Canyon Golf Club",
        "address": "10440 Indian Wells Drive, Fountain Hills, AZ 85268 US",
        "locality": "Fountain Hills",
        "region": "AZ",
        "country": "US",
        "location": [
          -111.716469,
          33.580585
        ],
        "timeZone": "America/Phoenix"
      },
      "datesChecked": [
        "2026-02-18",
        "2026-02-14",
        "2026-02-21"
      ],
      "teeTimes": [
        0,
        0,
        0
      ]
    },
    {
      "input": "Dove Valley Ranch Golf Club",
      "city": "Cave Creek",
      "alias": "dove-valley-ranch",
      "aliasSource": "base-only",
      "status": "confirmed",
      "facility": {
        "id": 115,
        "courseId": "54f14b3a0c8ad60378b00c44",
        "name": "Dove Valley Ranch Golf Club",
        "address": "33750 N Dove Lakes Dr, Cave Creek, AZ 85331, USA",
        "locality": "Cave Creek",
        "region": "AZ",
        "country": "US",
        "location": [
          -111.99219640000001,
          33.7897088
        ],
        "timeZone": "America/Phoenix"
      },
      "datesChecked": [
        "2026-02-18",
        "2026-02-14",
        "2026-02-21"
      ],
      "teeTimes": [
        22,
        16,
        17
      ]
    },
    {
      "input": "Eagle Mountain Golf Club",
      "city": "Fountain Hills",
      "alias": "eagle-mountain-golf-club",
      "aliasSource": "exact",
      "status": "listed_only",
      "facility": {
        "id": 2,
        "courseId": "54f1469c7bb759125cba20f3",
        "name": "Eagle Mountain Golf Club1",
        "address": "14915 East Eagle Mountain Parkway, Fountain Hills, AZ 85268, US",
        "locality": "Fountain Hills",
        "region": "AZ",
        "country": "US",
        "location": [
          -111.760654,
          33.579588
        ],
        "timeZone": "America/Phoenix"
      },
      "datesChecked": [
        "2026-02-18",
        "2026-02-14",
        "2026-02-21"
      ],
      "teeTimes": [
        0,
        0,
        0
      ]
    },
    {
      "input": "Foothills Golf Club",
      "city": "Phoenix",
      "alias": "foothills-golf-club",
      "aliasSource": "exact",
      "status": "confirmed",
      "facility": {
        "id": 430,
        "courseId": "54f14b640c8ad60378b00f38",
        "name": "Foothills Golf Club",
        "address": "2201 East Clubhouse Dr, Phoenix, AZ 85048 US",
        "locality": "Phoenix",
        "region": "AZ",
        "country": "US",
        "location": [
          -112.036803,
          33.298224
        ],
        "timeZone": "America/Phoenix"
      },
      "datesChecked": [
        "2026-02-18",
        "2026-02-14",
        "2026-02-21"
      ],
      "teeTimes": [
        25,
        22,
        24
      ]
    },
    {
      "input": "Golf Club of Estrella",
      "city": "Goodyear",
      "alias": "golf-club-of-estrella",
      "aliasSource": "exact",
      "status": "confirmed",
      "facility": {
        "id": 51,
        "courseId": "54f14b300c8ad60378b00bbf",
        "name": "Golf Club of Estrella",
        "address": "11800 South Golf Club Drive, Goodyear, AZ 85338 US",
        "locality": "Goodyear",
        "region": "AZ",
        "country": "US",
        "location": [
          -112.432108,
          33.33985
        ],
        "timeZone": "America/Phoenix"
      },
      "datesChecked": [
        "2026-02-18",
        "2026-02-14",
        "2026-02-21"
      ],
      "teeTimes": [
        27,
        36,
        19
      ]
    },
    {
      "input": "Golf Club at Johnson Ranch",
      "city": "San Tan Valley",
      "alias": "golf-club-at-johnson-ranch",
      "aliasSource": "",
      "status": "miss"
    },
    {
      "input": "Grand Canyon University Golf Course",
      "city": "Phoenix",
      "alias": "grand-canyon-university-golf-course",
      "aliasSource": "exact",
      "status": "confirmed",
      "facility": {
        "id": 290,
        "courseId": "54f14b520c8ad60378b00dfe",
        "name": "Grand Canyon University Golf Course",
        "address": "5902 W. Indian School Road, Phoenix, AZ 85033 US",
        "locality": "Phoenix",
        "region": "AZ",
        "country": "US",
        "location": [
          -112.186387,
          33.495054
        ],
        "timeZone": "America/Phoenix"
      },
      "datesChecked": [
        "2026-02-18",
        "2026-02-14",
        "2026-02-21"
      ],
      "teeTimes": [
        35,
        22,
        39
      ]
    },
    {
      "input": "Granite Falls Golf Club",
      "city": "Surprise",
      "alias": "granite-falls-golf-club",
      "aliasSource": "",
      "status": "miss"
    },
    {
      "input": "Grayhawk Golf Club",
      "city": "Scottsdale",
      "alias": "grayhawk-golf-club",
      "aliasSource": "exact",
      "status": "listed_only",
      "facility": {
        "id": 3050,
        "courseId": "54f14c5b0c8ad60378b023a4",
        "name": "Grayhawk Golf Club",
        "address": "8620 East Thompson Peak Parkway, Scottsdale, AZ 85255 US",
        "locality": "Scottsdale",
        "region": "AZ",
        "country": "US",
        "location": [
          -111.80694,
          33.67895
        ],
        "timeZone": "America/Phoenix"
      },
      "datesChecked": [
        "2026-02-18",
        "2026-02-14",
        "2026-02-21"
      ],
      "teeTimes": [
        0,
        0,
        0
      ]
    },
    {
      "input": "Greenfield Lakes Golf Course",
      "city": "Gilbert",
      "alias": "greenfield-lakes-golf-course",
      "aliasSource": "exact",
      "status": "confirmed",
      "facility": {
        "id": 4481,
        "courseId": "54f14ce50c8ad60378b02ff4",
        "name": "Greenfield Lakes Golf Course",
        "address": "2484 E. Warner Road, Gilbert, AZ 85296, US",
        "locality": "Gilbert",
        "region": "AZ",
        "country": "US",
        "location": [
          -111.735459,
          33.335844
        ],
        "timeZone": "America/Phoenix"
      },
      "datesChecked": [
        "2026-02-18",
        "2026-02-14",
        "2026-02-21"
      ],
      "teeTimes": [
        61,
        49,
        69
      ]
    },
    {
      "input": "Happy Trails Golf Club",
      "city": "Surprise",
      "alias": "happy-trails-golf-club",
      "aliasSource": "",
      "status": "miss"
    },
    {
      "input": "Hillcrest Golf Club",
      "city": "Sun City West",
      "alias": "hillcrest-golf",
      "aliasSource": "swap-golf",
      "status": "confirmed",
      "facility": {
        "id": 1296,
        "courseId": "54f14bc50c8ad60378b0163c",
        "name": "Hillcrest Golf Course",
        "address": "20002 N Star Ridge Dr, Sun City West, AZ 85375, USA",
        "locality": "Sun City West",
        "region": "AZ",
        "country": "US",
        "location": [
          -112.3437902,
          33.6654846
        ],
        "timeZone": "America/Phoenix"
      },
      "datesChecked": [
        "2026-02-18",
        "2026-02-14",
        "2026-02-21"
      ],
      "teeTimes": [
        38,
        32,
        16
      ]
    },
    {
      "input": "InScape Golf",
      "city": "Mesa",
      "alias": "inscape-golf",
      "aliasSource": "",
      "status": "miss"
    },
    {
      "input": "Ironwood Golf Course",
      "city": "Chandler",
      "alias": "ironwood-golf-club",
      "aliasSource": "swap-golf-club",
      "status": "confirmed",
      "facility": {
        "id": 3505,
        "courseId": "54f14c830c8ad60378b02743",
        "name": "Ironwood Golf Club",
        "address": "550 W. Champagne Dr., Chandler, AZ 85248 US",
        "locality": "Chandler",
        "region": "AZ",
        "country": "US",
        "location": [
          -111.848695,
          33.224724
        ],
        "timeZone": "America/Phoenix"
      },
      "datesChecked": [
        "2026-02-18",
        "2026-02-14",
        "2026-02-21"
      ],
      "teeTimes": [
        0,
        24,
        0
      ]
    },
    {
      "input": "Kokopelli Golf Club",
      "city": "Gilbert",
      "alias": "kokopelli-golf-club",
      "aliasSource": "exact",
      "status": "confirmed",
      "facility": {
        "id": 121,
        "courseId": "54f14b3a0c8ad60378b00c51",
        "name": "Kokopelli Golf Club",
        "address": "1800 W. Guadalupe Road, Gilbert, AZ 85233, US",
        "locality": "Gilbert",
        "region": "AZ",
        "country": "US",
        "location": [
          -111.829834,
          33.37066
        ],
        "timeZone": "America/Phoenix"
      },
      "datesChecked": [
        "2026-02-18",
        "2026-02-14",
        "2026-02-21"
      ],
      "teeTimes": [
        1,
        0,
        1
      ]
    },
    {
      "input": "Las Colinas Golf Club",
      "city": "Queen Creek",
      "alias": "las-colinas-golf-club",
      "aliasSource": "exact",
      "status": "confirmed",
      "facility": {
        "id": 1381,
        "courseId": "54f14bce0c8ad60378b016ff",
        "name": "Las Colinas Golf Club",
        "address": "21515 E. Village Loop Rd, Queen Creek, AZ 85242, US",
        "locality": "Queen Creek",
        "region": "AZ",
        "country": "US",
        "location": [
          -111.617317,
          33.241667
        ],
        "timeZone": "America/Phoenix"
      },
      "datesChecked": [
        "2026-02-18",
        "2026-02-14",
        "2026-02-21"
      ],
      "teeTimes": [
        23,
        28,
        44
      ]
    },
    {
      "input": "Las Sendas Golf Club",
      "city": "Mesa",
      "alias": "las-sendas-golf-club",
      "aliasSource": "exact",
      "status": "confirmed",
      "facility": {
        "id": 21,
        "courseId": "54f146e37bb759125cba2108",
        "name": "Las Sendas Golf Club",
        "address": "7555 E. Eagle Crest Dr., Mesa, AZ 85215, US",
        "locality": "Mesa",
        "region": "AZ",
        "country": "US",
        "location": [
          -111.673513,
          33.492403
        ],
        "timeZone": "America/Phoenix"
      },
      "datesChecked": [
        "2026-02-18",
        "2026-02-14",
        "2026-02-21"
      ],
      "teeTimes": [
        22,
        37,
        25
      ]
    },
    {
      "input": "Legacy Golf Club",
      "city": "Phoenix",
      "alias": "legacy-golf-club",
      "aliasSource": "",
      "status": "miss"
    },
    {
      "input": "Legend Trail Golf Club",
      "city": "Scottsdale",
      "alias": "legend-trail-golf-club",
      "aliasSource": "exact",
      "status": "confirmed",
      "facility": {
        "id": 111,
        "courseId": "54f14b390c8ad60378b00c3a",
        "name": "Legend Trail Golf Club",
        "address": "9462 E. Legendary Lane, Scottsdale, AZ 85256 US",
        "locality": "Scottsdale",
        "region": "AZ",
        "country": "US",
        "location": [
          -111.875603,
          33.800226
        ],
        "timeZone": "America/Phoenix"
      },
      "datesChecked": [
        "2026-02-18",
        "2026-02-14",
        "2026-02-21"
      ],
      "teeTimes": [
        23,
        36,
        30
      ]
    },
    {
      "input": "Leisure World Golf Course",
      "city": "Mesa",
      "alias": "leisure-world-golf-course",
      "aliasSource": "",
      "status": "miss"
    },
    {
      "input": "Lone Tree Golf Club",
      "city": "Chandler",
      "alias": "lone-tree-golf-club",
      "aliasSource": "exact",
      "status": "confirmed",
      "facility": {
        "id": 1349,
        "courseId": "54f14bcb0c8ad60378b016be",
        "name": "Lone Tree Golf Club",
        "address": "6262 South Mountain Blvd., Chandler, AZ 85249 US",
        "locality": "Chandler",
        "region": "AZ",
        "country": "US",
        "location": [
          -111.780654,
          33.216682
        ],
        "timeZone": "America/Phoenix"
      },
      "datesChecked": [
        "2026-02-18",
        "2026-02-14",
        "2026-02-21"
      ],
      "teeTimes": [
        18,
        21,
        41
      ]
    },
    {
      "input": "Longbow Golf Club",
      "city": "Mesa",
      "alias": "longbow-golf-club",
      "aliasSource": "exact",
      "status": "confirmed",
      "facility": {
        "id": 3021,
        "courseId": "54f14c590c8ad60378b02370",
        "name": "Longbow Golf Club, AZ",
        "address": "5601 E. Longbow Pkwy., Mesa, AZ 85215, US",
        "locality": "Mesa",
        "region": "AZ",
        "country": "US",
        "location": [
          -111.709886,
          33.473549
        ],
        "timeZone": "America/Phoenix"
      },
      "datesChecked": [
        "2026-02-18",
        "2026-02-14",
        "2026-02-21"
      ],
      "teeTimes": [
        27,
        22,
        22
      ]
    },
    {
      "input": "Lookout Mountain Golf Club",
      "city": "Phoenix",
      "alias": "lookout-mountain-gc",
      "aliasSource": "swap-gc",
      "status": "confirmed",
      "facility": {
        "id": 285,
        "courseId": "54f14b510c8ad60378b00df4",
        "name": "Lookout Mountain G.C.",
        "address": "11111 North 7th Street, Phoenix, AZ 85020 US",
        "locality": "Phoenix",
        "region": "AZ",
        "country": "US",
        "location": [
          -112.063829,
          33.585987
        ],
        "timeZone": "America/Phoenix"
      },
      "datesChecked": [
        "2026-02-18",
        "2026-02-14",
        "2026-02-21"
      ],
      "teeTimes": [
        8,
        8,
        12
      ]
    },
    {
      "input": "Los Caballeros Golf Club",
      "city": "Wickenburg",
      "alias": "los-caballeros-golf-club",
      "aliasSource": "exact",
      "status": "listed_only",
      "facility": {
        "id": 9335,
        "courseId": "54f14ee90c8ad60378b0598f",
        "name": "Los Caballeros Golf Club",
        "address": "1551 S Vulture Mine Rd, Wickenburg, AZ 85390 US",
        "locality": "Wickenburg",
        "region": "AZ",
        "country": "US",
        "location": [
          -112.783132,
          33.939615
        ],
        "timeZone": "America/Phoenix"
      },
      "datesChecked": [
        "2026-02-18",
        "2026-02-14",
        "2026-02-21"
      ],
      "teeTimes": [
        0,
        0,
        0
      ]
    },
    {
      "input": "McCormick Ranch Golf Club",
      "city": "Scottsdale",
      "alias": "mccormick-ranch",
      "aliasSource": "base-only",
      "status": "listed_only",
      "facility": {
        "id": 7078,
        "courseId": "54f14e100c8ad60378b04873",
        "name": "McCormick Ranch Golf Club - Pine Course",
        "address": "7505 E McCormick Pkwy, Scottsdale, AZ 85258 US",
        "locality": "Scottsdale",
        "region": "AZ",
        "country": "US",
        "location": [
          -111.9021,
          33.5706
        ],
        "timeZone": "America/Phoenix"
      },
      "datesChecked": [
        "2026-02-18",
        "2026-02-14",
        "2026-02-21"
      ],
      "teeTimes": [
        0,
        0,
        0
      ]
    },
    {
      "input": "McDowell Mountain Golf Club",
      "city": "Scottsdale",
      "alias": "mcdowell-mountain-golf-club",
      "aliasSource": "",
      "status": "miss"
    },
    {
      "input": "Mountain Brook Golf Club",
      "city": "Gold Canyon",
      "alias": "mountain-brook-golf-club",
      "aliasSource": "exact",
      "status": "confirmed",
      "facility": {
        "id": 3173,
        "courseId": "54f14c660c8ad60378b0249a",
        "name": "Mountain Brook Golf Club",
        "address": "5783 South Mountainbrook Drive, Gold Canyon, AZ 85118, US",
        "locality": "Gold Canyon",
        "region": "AZ",
        "country": "US",
        "location": [
          -111.46367,
          33.360732
        ],
        "timeZone": "America/Phoenix"
      },
      "datesChecked": [
        "2026-02-18",
        "2026-02-14",
        "2026-02-21"
      ],
      "teeTimes": [
        19,
        35,
        62
      ]
    },
    {
      "input": "Ocotillo Golf Club",
      "city": "Chandler",
      "alias": "ocotillo-golf-resort",
      "aliasSource": "swap-golf-resort",
      "status": "listed_only",
      "facility": {
        "id": 253,
        "courseId": "54f14b4c0c8ad60378b00da7",
        "name": "Ocotillo Golf Club",
        "address": "3751 S. Clubhouse Drive, Chandler, AZ 85248, US",
        "locality": "Chandler",
        "region": "AZ",
        "country": "US",
        "location": [
          -111.871997,
          33.2519
        ],
        "timeZone": "America/Phoenix"
      },
      "datesChecked": [
        "2026-02-18",
        "2026-02-14",
        "2026-02-21"
      ],
      "teeTimes": [
        0,
        0,
        0
      ]
    },
    {
      "input": "Orange Tree Golf Course",
      "city": "Scottsdale",
      "alias": "orange-tree-golf-club",
      "aliasSource": "swap-golf-club",
      "status": "listed_only",
      "facility": {
        "id": 229,
        "courseId": "54f14b490c8ad60378b00d67",
        "name": "Orange Tree Golf Course",
        "address": "10601 N. 56th Street, Scottsdale, AZ 85254, US",
        "locality": "Scottsdale",
        "region": "AZ",
        "country": "US",
        "location": [
          -111.960501,
          33.582642
        ],
        "timeZone": "America/Phoenix"
      },
      "datesChecked": [
        "2026-02-18",
        "2026-02-14",
        "2026-02-21"
      ],
      "teeTimes": [
        0,
        0,
        0
      ]
    },
    {
      "input": "Painted Mountain Golf Resort",
      "city": "Mesa",
      "alias": "painted-mountain",
      "aliasSource": "base-only",
      "status": "listed_only",
      "facility": {
        "id": 3233,
        "courseId": "54f14c6a0c8ad60378b024ff",
        "name": "Painted Mountain",
        "address": "6210 E. McKellips Rd., Mesa, AZ 85215, US",
        "locality": "Mesa",
        "region": "AZ",
        "country": "US",
        "location": [
          -111.696818,
          33.452802
        ],
        "timeZone": "America/Phoenix"
      },
      "datesChecked": [
        "2026-02-18",
        "2026-02-14",
        "2026-02-21"
      ],
      "teeTimes": [
        0,
        0,
        0
      ]
    },
    {
      "input": "Palm Valley Golf Club",
      "city": "Goodyear",
      "alias": "palm-valley-golf-club",
      "aliasSource": "",
      "status": "miss"
    },
    {
      "input": "Paradise Valley Golf Course",
      "city": "Phoenix",
      "alias": "paradise-valley-golf",
      "aliasSource": "swap-golf",
      "status": "confirmed",
      "facility": {
        "id": 6749,
        "courseId": "54f14deb0c8ad60378b045bf",
        "name": "Paradise Valley Golf",
        "address": "3505 E Union Hills Dr, Phoenix, AZ 85050 US",
        "locality": "Phoenix",
        "region": "AZ",
        "country": "US",
        "location": [
          -111.9975,
          33.6914
        ],
        "timeZone": "America/Phoenix"
      },
      "datesChecked": [
        "2026-02-18",
        "2026-02-14",
        "2026-02-21"
      ],
      "teeTimes": [
        43,
        11,
        40
      ]
    },
    {
      "input": "Pueblo El Mirage Golf Course",
      "city": "El Mirage",
      "alias": "pueblo-el-mirage-golf-course",
      "aliasSource": "exact",
      "status": "confirmed",
      "facility": {
        "id": 6914,
        "courseId": "54f14dfe0c8ad60378b04732",
        "name": "Pueblo El Mirage Golf Course",
        "address": "11201 N. El Mirage Rd., El Mirage, AZ 85335, US",
        "locality": "El Mirage",
        "region": "AZ",
        "country": "US",
        "location": [
          -112.31769,
          33.61348
        ],
        "timeZone": "America/Phoenix"
      },
      "datesChecked": [
        "2026-02-18",
        "2026-02-14",
        "2026-02-21"
      ],
      "teeTimes": [
        22,
        36,
        67
      ]
    },
    {
      "input": "Quintero Golf Club",
      "city": "Peoria",
      "alias": "quintero-golf-club",
      "aliasSource": "exact",
      "status": "listed_only",
      "facility": {
        "id": 6388,
        "courseId": "54f14dbf0c8ad60378b0428a",
        "name": "Quintero Golf Club",
        "address": "16752 West State Route 74, Peoria, AZ 85383 US",
        "locality": "Peoria",
        "region": "AZ",
        "country": "US",
        "location": [
          -112.42423,
          33.84148
        ],
        "timeZone": "America/Phoenix"
      },
      "datesChecked": [
        "2026-02-18",
        "2026-02-14",
        "2026-02-21"
      ],
      "teeTimes": [
        0,
        0,
        0
      ]
    },
    {
      "input": "Rancho Manana Golf Club",
      "city": "Cave Creek",
      "alias": "rancho-manana-golf-club",
      "aliasSource": "exact",
      "status": "confirmed",
      "facility": {
        "id": 2914,
        "courseId": "54f14c530c8ad60378b022eb",
        "name": "Rancho Manana Golf Club",
        "address": "5734 E Rancho Manana Blvd, Cave Creek, AZ 85331 US",
        "locality": "Cave Creek",
        "region": "AZ",
        "country": "US",
        "location": [
          -111.956202,
          33.832277
        ],
        "timeZone": "America/Phoenix"
      },
      "datesChecked": [
        "2026-02-18",
        "2026-02-14",
        "2026-02-21"
      ],
      "teeTimes": [
        27,
        26,
        22
      ]
    },
    {
      "input": "Raven Golf Club Phoenix",
      "city": "Phoenix",
      "alias": "raven-golf-club-phoenix",
      "aliasSource": "",
      "status": "miss"
    },
    {
      "input": "Red Mountain Ranch Country Club",
      "city": "Mesa",
      "alias": "red-mountain-ranch-country-club",
      "aliasSource": "exact",
      "status": "confirmed",
      "facility": {
        "id": 4678,
        "courseId": "54f14cfc0c8ad60378b031ff",
        "name": "Red Mountain Ranch Country Club",
        "address": "6425 E Teton Cir, Mesa, AZ 85215, US",
        "locality": "Mesa",
        "region": "AZ",
        "country": "US",
        "location": [
          -111.691133,
          33.488324
        ],
        "timeZone": "America/Phoenix"
      },
      "datesChecked": [
        "2026-02-18",
        "2026-02-14",
        "2026-02-21"
      ],
      "teeTimes": [
        26,
        26,
        25
      ]
    },
    {
      "input": "Riverview Golf Course",
      "city": "Mesa",
      "alias": "riverview-golf-course",
      "aliasSource": "",
      "status": "miss"
    },
    {
      "input": "Royal Palms Golf Course",
      "city": "Mesa",
      "alias": "royal-palms-golf-course",
      "aliasSource": "",
      "status": "miss"
    },
    {
      "input": "San Marcos Golf Course",
      "city": "Chandler",
      "alias": "san-marcos-golf-resort",
      "aliasSource": "swap-golf-resort",
      "status": "confirmed",
      "facility": {
        "id": 1383,
        "courseId": "54f14bce0c8ad60378b01706",
        "name": "San Marcos Golf Resort",
        "address": "100 N. Dakota St., Chandler, AZ 85225 US",
        "locality": "Chandler",
        "region": "AZ",
        "country": "US",
        "location": [
          -111.85185,
          33.302879
        ],
        "timeZone": "America/Phoenix"
      },
      "datesChecked": [
        "2026-02-18",
        "2026-02-14",
        "2026-02-21"
      ],
      "teeTimes": [
        35,
        35,
        40
      ]
    },
    {
      "input": "Scottsdale Silverado Golf Club",
      "city": "Scottsdale",
      "alias": "scottsdale-silverado-golf-club",
      "aliasSource": "",
      "status": "miss"
    },
    {
      "input": "Shalimar Golf Club",
      "city": "Tempe",
      "alias": "shalimar-country-club",
      "aliasSource": "swap-country-club",
      "status": "listed_only",
      "facility": {
        "id": 4168,
        "courseId": "54f14cc50c8ad60378b02d3c",
        "name": "Shalimar Golf Club",
        "address": "2032 East Golf Avenue, Tempe, AZ 85282 US",
        "locality": "Tempe",
        "region": "AZ",
        "country": "US",
        "location": [
          -111.898204,
          33.394901
        ],
        "timeZone": "America/Phoenix"
      },
      "datesChecked": [
        "2026-02-18",
        "2026-02-14",
        "2026-02-21"
      ],
      "teeTimes": [
        0,
        0,
        0
      ]
    },
    {
      "input": "Starfire Golf Club",
      "city": "Scottsdale",
      "alias": "starfire-golf-club",
      "aliasSource": "exact",
      "status": "confirmed",
      "facility": {
        "id": 6,
        "courseId": "54f146e37bb759125cba2102",
        "name": "Starfire Golf Club",
        "address": "11500 N Hayden Rd, Scottsdale, AZ 85260, USA",
        "locality": "Scottsdale",
        "region": "AZ",
        "country": "US",
        "location": [
          -111.909305,
          33.5902239
        ],
        "timeZone": "America/Phoenix"
      },
      "datesChecked": [
        "2026-02-18",
        "2026-02-14",
        "2026-02-21"
      ],
      "teeTimes": [
        55,
        36,
        48
      ]
    },
    {
      "input": "Stonecreek Golf Club",
      "city": "Phoenix",
      "alias": "stonecreek-golf-club",
      "aliasSource": "exact",
      "status": "confirmed",
      "facility": {
        "id": 122,
        "courseId": "54f14b3a0c8ad60378b00c53",
        "name": "Stonecreek Golf Club",
        "address": "4435 East Paradise Village Pkwy So., Phoenix, AZ 85032, US",
        "locality": "Phoenix",
        "region": "AZ",
        "country": "US",
        "location": [
          -111.986572,
          33.596638
        ],
        "timeZone": "America/Phoenix"
      },
      "datesChecked": [
        "2026-02-18",
        "2026-02-14",
        "2026-02-21"
      ],
      "teeTimes": [
        50,
        32,
        44
      ]
    },
    {
      "input": "Sundance Golf Club",
      "city": "Buckeye",
      "alias": "sundance-golf-club",
      "aliasSource": "exact",
      "status": "listed_only",
      "facility": {
        "id": 39,
        "courseId": "54f149a57bb759125cba2153",
        "name": "Sundance Golf Club",
        "address": "900 S. Sundance Parkway, Buckeye, AZ 85326 US",
        "locality": "Buckeye",
        "region": "AZ",
        "country": "US",
        "location": [
          -112.548923,
          33.434665
        ],
        "timeZone": "America/Phoenix"
      },
      "datesChecked": [
        "2026-02-18",
        "2026-02-14",
        "2026-02-21"
      ],
      "teeTimes": [
        0,
        0,
        0
      ]
    },
    {
      "input": "SunRidge Canyon Golf Club",
      "city": "Fountain Hills",
      "alias": "sunridge-canyon-golf-club",
      "aliasSource": "exact",
      "status": "listed_only",
      "facility": {
        "id": 4990,
        "courseId": "54f14d200c8ad60378b0353e",
        "name": "SunRidge Canyon Golf Club",
        "address": "13100 N Sunridge Dr, Fountain Hills, AZ 85268 US",
        "locality": "Fountain Hills",
        "region": "AZ",
        "country": "US",
        "location": [
          -111.73062,
          33.60336
        ],
        "timeZone": "America/Phoenix"
      },
      "datesChecked": [
        "2026-02-18",
        "2026-02-14",
        "2026-02-21"
      ],
      "teeTimes": [
        0,
        0,
        0
      ]
    },
    {
      "input": "Sunland Springs Village Golf",
      "city": "Mesa",
      "alias": "sunland-springs-village-golf",
      "aliasSource": "",
      "status": "miss"
    },
    {
      "input": "Superstition Springs Golf Club",
      "city": "Mesa",
      "alias": "superstition-springs-golf-club",
      "aliasSource": "exact",
      "status": "confirmed",
      "facility": {
        "id": 120,
        "courseId": "54f14b3a0c8ad60378b00c4d",
        "name": "Superstition Springs Golf Club",
        "address": "6542 E. Baseline, Mesa, AZ 85206, US",
        "locality": "Mesa",
        "region": "AZ",
        "country": "US",
        "location": [
          -111.693664,
          33.379248
        ],
        "timeZone": "America/Phoenix"
      },
      "datesChecked": [
        "2026-02-18",
        "2026-02-14",
        "2026-02-21"
      ],
      "teeTimes": [
        50,
        43,
        64
      ]
    },
    {
      "input": "Talking Stick Golf Club",
      "city": "Scottsdale",
      "alias": "talking-stick-golf-club",
      "aliasSource": "exact",
      "status": "confirmed",
      "facility": {
        "id": 814,
        "courseId": "54f14b990c8ad60378b0126a",
        "name": "Talking Stick Golf Club - Piipaash (South)",
        "address": "9998 Talking Stick Way, Scottsdale, AZ 85256, US",
        "locality": "Scottsdale",
        "region": "AZ",
        "country": "US",
        "location": [
          -111.86924550000003,
          33.5385233
        ],
        "timeZone": "America/Phoenix"
      },
      "datesChecked": [
        "2026-02-18",
        "2026-02-14",
        "2026-02-21"
      ],
      "teeTimes": [
        47,
        20,
        26
      ]
    },
    {
      "input": "Tatum Ranch Golf Club",
      "city": "Cave Creek",
      "alias": "tatum-ranch-golf-club",
      "aliasSource": "exact",
      "status": "listed_only",
      "facility": {
        "id": 8237,
        "courseId": "54f14e7c0c8ad60378b050a6",
        "name": "Tatum Ranch Golf Club",
        "address": "29888 N. Tatum Ranch Drive , Cave Creek, AZ 853312 US",
        "locality": "Cave Creek",
        "region": "AZ",
        "country": "US",
        "location": [
          -111.985899,
          33.758788
        ],
        "timeZone": "America/Phoenix"
      },
      "datesChecked": [
        "2026-02-18",
        "2026-02-14",
        "2026-02-21"
      ],
      "teeTimes": [
        0,
        0,
        0
      ]
    },
    {
      "input": "The Phoenician Golf Club",
      "city": "Scottsdale",
      "alias": "the-phoenician",
      "aliasSource": "base-only",
      "status": "confirmed",
      "facility": {
        "id": 1106,
        "courseId": "54f14bb20c8ad60378b01495",
        "name": "The Phoenician",
        "address": "6000 E. Camelback, Scottsdale, AZ 85251 US",
        "locality": "Scottsdale",
        "region": "AZ",
        "country": "US",
        "location": [
          -111.945877,
          33.506978
        ],
        "timeZone": "America/Phoenix"
      },
      "datesChecked": [
        "2026-02-18",
        "2026-02-14",
        "2026-02-21"
      ],
      "teeTimes": [
        10,
        10,
        13
      ]
    },
    {
      "input": "TPC Scottsdale",
      "city": "Scottsdale",
      "alias": "tpc-scottsdale",
      "aliasSource": "",
      "status": "miss"
    },
    {
      "input": "Tres Rios Golf Course",
      "city": "Goodyear",
      "alias": "tres-rios-golf-course",
      "aliasSource": "",
      "status": "miss"
    },
    {
      "input": "Trilogy Golf Club at Vistancia",
      "city": "Peoria",
      "alias": "trilogy-golf-club-at-vistancia",
      "aliasSource": "exact",
      "status": "confirmed",
      "facility": {
        "id": 1327,
        "courseId": "54f14bc90c8ad60378b0168e",
        "name": "Trilogy Golf Club at Vistancia",
        "address": "12575 West Golf Club Dr., Peoria, AZ 85383 US",
        "locality": "Peoria",
        "region": "AZ",
        "country": "US",
        "location": [
          -112.330338,
          33.743328
        ],
        "timeZone": "America/Phoenix"
      },
      "datesChecked": [
        "2026-02-18",
        "2026-02-14",
        "2026-02-21"
      ],
      "teeTimes": [
        14,
        23,
        34
      ]
    },
    {
      "input": "Troon North Golf Club",
      "city": "Scottsdale",
      "alias": "troon-north-golf-club",
      "aliasSource": "exact",
      "status": "confirmed",
      "facility": {
        "id": 813,
        "courseId": "54f14b990c8ad60378b01268",
        "name": "Troon North Golf Club",
        "address": "10320 E Dynamite Blvd., Scottsdale, AZ 85255, US",
        "locality": "Scottsdale",
        "region": "AZ",
        "country": "US",
        "location": [
          -111.857986,
          33.746815
        ],
        "timeZone": "America/Phoenix"
      },
      "datesChecked": [
        "2026-02-18",
        "2026-02-14",
        "2026-02-21"
      ],
      "teeTimes": [
        65,
        48,
        32
      ]
    },
    {
      "input": "Verde River Golf Club",
      "city": "Rio Verde",
      "alias": "verde-river",
      "aliasSource": "base-only",
      "status": "listed_only",
      "facility": {
        "id": 2039,
        "courseId": "54f14c0d0c8ad60378b01cbb",
        "name": "Verde River Golf \u0026 Social Club",
        "address": "29005 N Paseo Verde Dr, Rio Verde, AZ 85263, USA",
        "locality": "Rio Verde",
        "region": "AZ",
        "country": "US",
        "location": [
          -111.6799358,
          33.7191914
        ],
        "timeZone": "America/Phoenix"
      },
      "datesChecked": [
        "2026-02-18",
        "2026-02-14",
        "2026-02-21"
      ],
      "teeTimes": [
        0,
        0,
        0
      ]
    },
    {
      "input": "Verrado Golf Club",
      "city": "Buckeye",
      "alias": "verrado-golf-club",
      "aliasSource": "",
      "status": "miss"
    },
    {
      "input": "Viewpoint Golf Resort",
      "city": "Mesa",
      "alias": "viewpoint-golf-resort",
      "aliasSource": "exact",
      "status": "confirmed",
      "facility": {
        "id": 169,
        "courseId": "54f14b410c8ad60378b00ccc",
        "name": "Viewpoint Golf Resort",
        "address": "650 N. Hawes Road, Mesa, AZ 85207 US",
        "locality": "Mesa",
        "region": "AZ",
        "country": "US",
        "location": [
          -111.649875,
          33.427151
        ],
        "timeZone": "America/Phoenix"
      },
      "datesChecked": [
        "2026-02-18",
        "2026-02-14",
        "2026-02-21"
      ],
      "teeTimes": [
        1,
        25,
        0
      ]
    },
    {
      "input": "We-Ko-Pa Golf Club",
      "city": "Fort McDowell",
      "alias": "we-ko-pa-golf-club",
      "aliasSource": "",
      "status": "miss"
    },
    {
      "input": "Westin Kierland Golf Club",
      "city": "Scottsdale",
      "alias": "westin-kierland-golf-club",
      "aliasSource": "",
      "status": "miss"
    },
    {
      "input": "Westbrook Village Golf Club",
      "city": "Peoria",
      "alias": "westbrook-village-golf-club",
      "aliasSource": "",
      "status": "miss"
    },
    {
      "input": "Whirlwind Golf Club",
      "city": "Chandler",
      "alias": "whirlwind-golf-club",
      "aliasSource": "",
      "status": "miss"
    },
    {
      "input": "Wickenburg Ranch Golf Club",
      "city": "Wickenburg",
      "alias": "wickenburg-ranch-golf-club",
      "aliasSource": "",
      "status": "miss"
    },
    {
      "input": "Wickenburg Country Club",
      "city": "Wickenburg",
      "alias": "wickenburg-country-club",
      "aliasSource": "exact",
      "status": "confirmed",
      "facility": {
        "id": 9766,
        "courseId": "54f14f180c8ad60378b05de9",
        "name": "Wickenburg Country Club",
        "address": "1420 W Country Club Dr, Wickenburg, AZ 85390 US",
        "locality": "Wickenburg",
        "region": "AZ",
        "country": "US",
        "location": [
          -112.76455,
          33.973432
        ],
        "timeZone": "America/Phoenix"
      },
      "datesChecked": [
        "2026-02-18",
        "2026-02-14",
        "2026-02-21"
      ],
      "teeTimes": [
        25,
        24,
        4
      ]
    },
    {
      "input": "Wigwam Golf Club",
      "city": "Litchfield Park",
      "alias": "wigwam",
      "aliasSource": "base-only",
      "status": "confirmed",
      "facility": {
        "id": 6735,
        "courseId": "54f14de90c8ad60378b04597",
        "name": "Wigwam Golf Club",
        "address": "451 N Litchfield Rd., Litchfield Park, AZ 85340, US",
        "locality": "Litchfield Park",
        "region": "AZ",
        "country": "US",
        "location": [
          -112.376694,
          33.501179
        ],
        "timeZone": "America/Phoenix"
      },
      "datesChecked": [
        "2026-02-18",
        "2026-02-14",
        "2026-02-21"
      ],
      "teeTimes": [
        51,
        40,
        0
      ]
    },
    {
      "input": "Wildfire Golf Club",
      "city": "Phoenix",
      "alias": "wildfire-golf-club",
      "aliasSource": "exact",
      "status": "listed_only",
      "facility": {
        "id": 7936,
        "courseId": "54f14e630c8ad60378b04ecd",
        "name": "Wildfire Golf Club - Faldo Course",
        "address": "5350 E. Marriott Dr., Phoenix, AZ 85054 US",
        "locality": "Phoenix",
        "region": "AZ",
        "country": "US",
        "location": [
          -111.93753,
          33.6789
        ],
        "timeZone": "America/Phoenix"
      },
      "datesChecked": [
        "2026-02-18",
        "2026-02-14",
        "2026-02-21"
      ],
      "teeTimes": [
        0,
        0,
        0
      ]
    },
    {
      "input": "Alta Mesa Golf Club",
      "city": "Mesa",
      "alias": "alta-mesa-golf-club",
      "aliasSource": "",
      "status": "miss"
    },
    {
      "input": "Encanterra Country Club",
      "city": "Queen Creek",
      "alias": "encanterra-country-club",
      "aliasSource": "",
      "status": "miss"
    },
    {
      "input": "Queen Valley Golf Course",
      "city": "Queen Valley",
      "alias": "queen-valley-golf-course",
      "aliasSource": "exact",
      "status": "listed_only",
      "facility": {
        "id": 11469,
        "courseId": "54f14fbb0c8ad60378b06daf",
        "name": "Queen Valley Golf Course",
        "address": "600 N Fairway Dr, Apache Junction, AZ 85218 US",
        "locality": "Apache Junction",
        "region": "AZ",
        "country": "US",
        "location": [
          -111.289374,
          33.29923
        ],
        "timeZone": "America/Phoenix"
      },
      "datesChecked": [
        "2026-02-18",
        "2026-02-14",
        "2026-02-21"
      ],
      "teeTimes": [
        0,
        0,
        0
      ]
    },
    {
      "input": "Springfield Golf Resort",
      "city": "Chandler",
      "alias": "springfield-golf-resort",
      "aliasSource": "",
      "status": "miss"
    }
  ],
  "state": "AZ",
  "timestamp": "2026-02-14T04:33:10-07:00",
  "totalInput": 92,
  "validationDates": [
    "2026-02-18",
    "2026-02-14",
    "2026-02-21"
  ]
}