{
  "confirmed": 2,
  "elapsed": "6m20.846052125s",
  "errors": 0,
  "listedOnly": 10,
  "misses": 20,
  "platform": "teeitup",
  "results": [
    {
      "input": "Earlywine Golf Club - North",
      "city": "Oklahoma City",
      "alias": "earlywine-golf-club-north",
      "aliasSource": "",
      "status": "miss",
      "exactStatus": 404
    },
    {
      "input": "Earlywine Golf Club - South",
      "city": "Oklahoma City",
      "alias": "earlywine-golf-club-south",
      "aliasSource": "",
      "status": "miss",
      "exactStatus": 404
    },
    {
      "input": "Lake Hefner Golf Club - North",
      "city": "Oklahoma City",
      "alias": "lake-hefner-golf-club-north",
      "aliasSource": "",
      "status": "miss",
      "exactStatus": 404
    },
    {
      "input": "Lake Hefner Golf Club - South",
      "city": "Oklahoma City",
      "alias": "lake-hefner-golf-club-south",
      "aliasSource": "",
      "status": "miss",
      "exactStatus": 404
    },
    {
      "input": "Lincoln Park Golf Course - East",
      "city": "Oklahoma City",
      "alias": "lincoln-park-golf-course-east",
      "aliasSource": "",
      "status": "miss",
      "exactStatus": 404
    },
    {
      "input": "Lincoln Park Golf Course - West",
      "city": "Oklahoma City",
      "alias": "lincoln-park-golf-course-west",
      "aliasSource": "",
      "status": "miss",
      "exactStatus": 404
    },
    {
      "input": "Trosper Golf Club",
      "city": "Oklahoma City",
      "alias": "trosper-golf-club",
      "aliasSource": "",
      "status": "miss",
      "exactStatus": 404
    },
    {
      "input": "James E. Stewart Golf Course",
      "city": "Oklahoma City",
      "alias": "james-e-stewart-golf-course",
      "aliasSource": "",
      "status": "miss",
      "exactStatus": 404
    },
    {
      "input": "The Links at Oklahoma City Golf \u0026 Athletic Club",
      "city": "Oklahoma City",
      "alias": "the-links-at-oklahoma-city-golf-and-athletic-club",
      "aliasSource": "",
      "status": "miss",
      "exactStatus": 404
    },
    {
      "input": "Kickingbird Golf Club",
      "city": "Edmond",
      "alias": "kickingbird-golf-club",
      "aliasSource": "exact",
      "status": "listed_only",
      "facility": {
        "id": 903,
        "courseId": "54f14ba20c8ad60378b01335",
        "name": "KickingBird Golf Club",
        "address": "1600 E Danforth, Edmond, OK 73034 US",
        "locality": "Edmond",
        "region": "OK",
        "country": "US",
        "location": [
          -97.4591,
          35.667
        ],
        "timeZone": "America/Chicago"
      },
      "datesChecked": [
        "2026-02-18",
        "2026-02-21",
        "2026-02-28"
      ],
      "teeTimes": [
        0,
        0,
        0
      ]
    },
    {
      "input": "Golf Club of Edmond",
      "city": "Edmond",
      "alias": "golf-club-of-edmond",
      "aliasSource": "",
      "status": "miss",
      "exactStatus": 404
    },
    {
      "input": "Coffee Creek Golf Club",
      "city": "Edmond",
      "alias": "coffee-creek-golf-course",
      "aliasSource": "swap-golf-course",
      "status": "listed_only",
      "facility": {
        "id": 768,
        "courseId": "54f14b940c8ad60378b011f7",
        "name": "Coffee Creek Golf Course",
        "address": "4000 N. Kelly Avenue, Edmond, OK 73003 US",
        "locality": "Edmond",
        "region": "OK",
        "country": "US",
        "location": [
          -97.4961,
          35.6952
        ],
        "timeZone": "America/Chicago"
      },
      "datesChecked": [
        "2026-02-18",
        "2026-02-21",
        "2026-02-28"
      ],
      "teeTimes": [
        0,
        0,
        0
      ]
    },
    {
      "input": "Rose Creek Golf Club",
      "city": "Edmond",
      "alias": "rose-creek-golf-club",
      "aliasSource": "exact",
      "status": "listed_only",
      "facility": {
        "id": 898,
        "courseId": "54f14ba20c8ad60378b0132b",
        "name": "Rose Creek Golf Club",
        "address": "17031 N. May Ave, Edmond, OK 73003 US",
        "locality": "Edmond",
        "region": "OK",
        "country": "US",
        "location": [
          -97.5672,
          35.6436
        ],
        "timeZone": "America/Chicago"
      },
      "datesChecked": [
        "2026-02-18",
        "2026-02-21",
        "2026-02-28"
      ],
      "teeTimes": [
        0,
        0,
        0
      ]
    },
    {
      "input": "Jimmie Austin OU Golf Club",
      "city": "Norman",
      "alias": "jimmie-austin-ou-golf-club",
      "aliasSource": "exact",
      "status": "listed_only",
      "facility": {
        "id": 915,
        "courseId": "54f14ba30c8ad60378b0134f",
        "name": "Jimmie Austin OU Golf Club",
        "address": "1 Par Drive, Norman, OK 73019 US",
        "locality": "Norman",
        "region": "OK",
        "country": "US",
        "location": [
          -97.432541,
          35.194459
        ],
        "timeZone": "America/Chicago"
      },
      "datesChecked": [
        "2026-02-18",
        "2026-02-21",
        "2026-02-28"
      ],
      "teeTimes": [
        0,
        0,
        0
      ]
    },
    {
      "input": "Westwood Golf Course",
      "city": "Norman",
      "alias": "westwood-golf-course",
      "aliasSource": "",
      "status": "miss"
    },
    {
      "input": "The Trails Golf Club",
      "city": "Norman",
      "alias": "the-trails-golf-club",
      "aliasSource": "exact",
      "status": "listed_only",
      "facility": {
        "id": 11419,
        "courseId": "54f14fb70c8ad60378b06d35",
        "name": "The Trails Golf Club",
        "address": "3200 S Berry Rd, Norman, OK 73072 US",
        "locality": "Norman",
        "region": "OK",
        "country": "US",
        "location": [
          -97.468031,
          35.185021
        ],
        "timeZone": "America/Chicago"
      },
      "datesChecked": [
        "2026-02-18",
        "2026-02-21",
        "2026-02-28"
      ],
      "teeTimes": [
        0,
        0,
        0
      ]
    },
    {
      "input": "Cobblestone Creek Golf Course",
      "city": "Norman",
      "alias": "cobblestone-creek-golf-course",
      "aliasSource": "exact",
      "status": "listed_only",
      "facility": {
        "id": 1979,
        "courseId": "54f14c060c8ad60378b01c2b",
        "name": "Cobblestone Creek Golf Course",
        "address": "700 E. Smith Ferry Road, Muskogee, OK 74402 US",
        "locality": "Muskogee",
        "region": "OK",
        "country": "US",
        "location": [
          -95.374546,
          35.693971
        ],
        "timeZone": "America/Chicago"
      },
      "datesChecked": [
        "2026-02-18",
        "2026-02-21",
        "2026-02-28"
      ],
      "teeTimes": [
        0,
        0,
        0
      ]
    },
    {
      "input": "Belmar Golf Club",
      "city": "Norman",
      "alias": "belmar-golf-club",
      "aliasSource": "",
      "status": "miss",
      "exactStatus": 404
    },
    {
      "input": "John Conrad Regional Golf Course",
      "city": "Midwest City",
      "alias": "john-conrad-regional-golf-course",
      "aliasSource": "",
      "status": "miss",
      "exactStatus": 404
    },
    {
      "input": "Moore Golf \u0026 Athletic Club",
      "city": "Moore",
      "alias": "moore-golf-and-athletic-club",
      "aliasSource": "",
      "status": "miss",
      "exactStatus": 404
    },
    {
      "input": "Choctaw Creek Golf Course",
      "city": "Choctaw",
      "alias": "choctaw-creek-golf-course",
      "aliasSource": "exact",
      "status": "confirmed",
      "facility": {
        "id": 2717,
        "courseId": "54f14c420c8ad60378b0218c",
        "name": "Choctaw Creek Golf Course",
        "address": "2200 N. Hiwassee, Choctaw, OK 73020, US",
        "locality": "Choctaw",
        "region": "OK",
        "country": "US",
        "location": [
          -97.296038,
          35.489223
        ],
        "timeZone": "America/Chicago"
      },
      "datesChecked": [
        "2026-02-18",
        "2026-02-21",
        "2026-02-28"
      ],
      "teeTimes": [
        50,
        46,
        0
      ]
    },
    {
      "input": "Pebble Creek Golf Course",
      "city": "Mustang",
      "alias": "pebble-creek-golf-course",
      "aliasSource": "",
      "status": "miss"
    },
    {
      "input": "Surrey Hills Golf Club",
      "city": "Yukon",
      "alias": "surrey-hills-golf-club",
      "aliasSource": "exact",
      "status": "listed_only",
      "facility": {
        "id": 1925,
        "courseId": "54f14c010c8ad60378b01ba9",
        "name": "Surrey Hills Golf Club",
        "address": "11340 Surrey Hills Blvd, Yukon, OK 73099, US",
        "locality": "Yukon",
        "region": "OK",
        "country": "US",
        "location": [
          -97.7267,
          35.590182
        ],
        "timeZone": "America/Chicago"
      },
      "datesChecked": [
        "2026-02-18",
        "2026-02-21",
        "2026-02-28"
      ],
      "teeTimes": [
        0,
        0,
        0
      ]
    },
    {
      "input": "Winter Creek Golf \u0026 Country Club",
      "city": "Blanchard",
      "alias": "winter-creek-golf-and-country-club",
      "aliasSource": "",
      "status": "miss",
      "exactStatus": 404
    },
    {
      "input": "Cedar Valley Golf Club",
      "city": "Guthrie",
      "alias": "cedar-valley-golf-club",
      "aliasSource": "",
      "status": "miss"
    },
    {
      "input": "Cimarron National Golf Club",
      "city": "Guthrie",
      "alias": "cimarron-national-golf-club",
      "aliasSource": "exact",
      "status": "confirmed",
      "facility": {
        "id": 7855,
        "courseId": "54f14e5e0c8ad60378b04e70",
        "name": "Cimarron National Golf Club",
        "address": "500 Duffys Way, Guthrie, OK 73044 US",
        "locality": "Guthrie",
        "region": "OK",
        "country": "US",
        "location": [
          -97.423607,
          35.865509
        ],
        "timeZone": "America/Chicago"
      },
      "datesChecked": [
        "2026-02-18",
        "2026-02-21",
        "2026-02-28"
      ],
      "teeTimes": [
        55,
        55,
        0
      ]
    },
    {
      "input": "Firelake Golf Course",
      "city": "Shawnee",
      "alias": "firelake-golf-course",
      "aliasSource": "exact",
      "status": "listed_only",
      "facility": {
        "id": 1428,
        "courseId": "54f14bd30c8ad60378b01770",
        "name": "Firelake Golf Course",
        "address": "1601 S. Gordon Cooper Drive, Shawnee, OK 74801 US",
        "locality": "Shawnee",
        "region": "OK",
        "country": "US",
        "location": [
          -96.9267,
          35.30647
        ],
        "timeZone": "America/Chicago"
      },
      "datesChecked": [
        "2026-02-18",
        "2026-02-21",
        "2026-02-28"
      ],
      "teeTimes": [
        0,
        0,
        0
      ]
    },
    {
      "input": "Crimson Creek Golf Club",
      "city": "El Reno",
      "alias": "crimson-creek-golf-club",
      "aliasSource": "exact",
      "status": "listed_only",
      "facility": {
        "id": 831,
        "courseId": "54f14b9b0c8ad60378b01293",
        "name": "Crimson Creek Golf Course",
        "address": "800 Babcock Dr., El Reno, OK 73036 US",
        "locality": "El Reno",
        "region": "OK",
        "country": "US",
        "location": [
          -97.985516,
          35.518255
        ],
        "timeZone": "America/Chicago"
      },
      "datesChecked": [
        "2026-02-18",
        "2026-02-21",
        "2026-02-28"
      ],
      "teeTimes": [
        0,
        0,
        0
      ]
    },
    {
      "input": "Brent Bruehl Memorial Golf Course",
      "city": "Purcell",
      "alias": "brent-bruehl-memorial-golf-course",
      "aliasSource": "exact",
      "status": "listed_only",
      "facility": {
        "id": 5306,
        "courseId": "54f14d440c8ad60378b0387f",
        "name": "Brent Bruehl Memorial Golf Course",
        "address": "1400 Chandler Park Rd, Purcell, OK 73080 US",
        "locality": "Purcell",
        "region": "OK",
        "country": "US",
        "location": [
          -97.37867,
          34.98766
        ],
        "timeZone": "America/Chicago"
      },
      "datesChecked": [
        "2026-02-18",
        "2026-02-21",
        "2026-02-28"
      ],
      "teeTimes": [
        0,
        0,
        0
      ]
    },
    {
      "input": "Chickasha Golf \u0026 Country Club",
      "city": "Chickasha",
      "alias": "chickasha-golf-and-country-club",
      "aliasSource": "",
      "status": "miss",
      "exactStatus": 404
    },
    {
      "input": "Lakeside Memorial Golf Course",
      "city": "Stillwater",
      "alias": "lakeside-memorial-golf-course",
      "aliasSource": "",
      "status": "miss",
      "exactStatus": 404
    },
    {
      "input": "Chandler Golf Course",
      "city": "Chandler",
      "alias": "chandler-golf-course",
      "aliasSource": "",
      "status": "miss",
      "exactStatus": 404
    }
  ],
  "state": "OK",
  "timestamp": "2026-02-16T22:50:07-07:00",
  "totalInput": 32,
  "validationDates": [
    "2026-02-18",
    "2026-02-21",
    "2026-02-28"
  ]
}