{
  "confirmed": 8,
  "elapsed": "2m39.479854792s",
  "errors": 0,
  "listedOnly": 17,
  "misses": 28,
  "platform": "teeitup",
  "results": [
    {
      "input": "Harry L. Jones Sr. Golf Course",
      "city": "Charlotte",
      "alias": "harry-l-jones-sr-golf-course",
      "aliasSource": "",
      "status": "miss",
      "exactStatus": 404
    },
    {
      "input": "Charles T. Myers Golf Club",
      "city": "Charlotte",
      "alias": "charles-t-myers-golf-course",
      "aliasSource": "swap-golf-course",
      "status": "listed_only",
      "facility": {
        "id": 1560,
        "courseId": "54f14bdf0c8ad60378b01889",
        "name": "Charles T. Myers Golf Course",
        "address": "7817 Harrisburg Rd, Charlotte, NC 28215, US",
        "locality": "Charlotte",
        "region": "NC",
        "country": "US",
        "location": [
          -80.68783,
          35.207147
        ],
        "timeZone": "America/New_York"
      },
      "datesChecked": [
        "2026-02-18",
        "2026-02-21",
        "2026-02-28"
      ],
      "teeTimes": [
        0,
        0,
        0
      ]
    },
    {
      "input": "Dr. Charles L. Sifford Golf Course",
      "city": "Charlotte",
      "alias": "dr-charles-l-sifford-golf-course",
      "aliasSource": "",
      "status": "miss",
      "exactStatus": 404
    },
    {
      "input": "Sunset Hills Golf Course",
      "city": "Charlotte",
      "alias": "sunset-hills-golf-course",
      "aliasSource": "exact",
      "status": "listed_only",
      "facility": {
        "id": 3686,
        "courseId": "54f14c920c8ad60378b02894",
        "name": "Sunset Hills Golf Course",
        "address": "800 Radio Rd., Charlotte, NC 28216, US",
        "locality": "Charlotte",
        "region": "NC",
        "country": "US",
        "location": [
          -80.887806,
          35.304198
        ],
        "timeZone": "America/New_York"
      },
      "datesChecked": [
        "2026-02-18",
        "2026-02-21",
        "2026-02-28"
      ],
      "teeTimes": [
        0,
        0,
        0
      ]
    },
    {
      "input": "Sunset Hills Golf Course",
      "city": "Charlotte",
      "alias": "sunset-hills",
      "aliasSource": "base-only",
      "status": "listed_only",
      "facility": {
        "id": 3687,
        "courseId": "54f14c920c8ad60378b02896",
        "name": "Sunset Hills Learning 9",
        "address": "800 Radio Rd., Charlotte, NC 28216 US",
        "locality": "Charlotte",
        "region": "NC",
        "country": "US",
        "location": [
          -80.879968,
          35.286478
        ],
        "timeZone": "America/New_York"
      },
      "datesChecked": [
        "2026-02-18",
        "2026-02-21",
        "2026-02-28"
      ],
      "teeTimes": [
        0,
        0,
        0
      ]
    },
    {
      "input": "Highland Creek Golf Club",
      "city": "Charlotte",
      "alias": "highland-creek-golf-club",
      "aliasSource": "",
      "status": "miss",
      "exactStatus": 404
    },
    {
      "input": "Olde Sycamore Golf Plantation",
      "city": "Charlotte",
      "alias": "olde-sycamore-golf-plantation",
      "aliasSource": "",
      "status": "miss",
      "exactStatus": 404
    },
    {
      "input": "The Tradition Golf Club",
      "city": "Charlotte",
      "alias": "the-tradition-golf-club",
      "aliasSource": "",
      "status": "miss",
      "exactStatus": 404
    },
    {
      "input": "The Divide Golf Club",
      "city": "Matthews",
      "alias": "the-divide",
      "aliasSource": "base-only",
      "status": "listed_only",
      "facility": {
        "id": 2980,
        "courseId": "54f14c550c8ad60378b02326",
        "name": "The Divide",
        "address": "6803 Stevens Mill Rd, Matthews, NC 28104 US",
        "locality": "Matthews",
        "region": "NC",
        "country": "US",
        "location": [
          -80.723889,
          35.116667
        ],
        "timeZone": "America/New_York"
      },
      "datesChecked": [
        "2026-02-18",
        "2026-02-21",
        "2026-02-28"
      ],
      "teeTimes": [
        0,
        0,
        0
      ]
    },
    {
      "input": "Emerald Lake Golf Club",
      "city": "Matthews",
      "alias": "emerald-lake-golf-club",
      "aliasSource": "exact",
      "status": "listed_only",
      "facility": {
        "id": 1674,
        "courseId": "54f14be90c8ad60378b01978",
        "name": "Emerald Lake Golf Club",
        "address": "9750 Tournament Dr, Matthews, NC 28104 US",
        "locality": "Matthews",
        "region": "NC",
        "country": "US",
        "location": [
          -80.613398,
          35.140826
        ],
        "timeZone": "America/New_York"
      },
      "datesChecked": [
        "2026-02-18",
        "2026-02-21",
        "2026-02-28"
      ],
      "teeTimes": [
        0,
        0,
        0
      ]
    },
    {
      "input": "Charlotte National Golf Club",
      "city": "Indian Trail",
      "alias": "charlotte-national-golf-club",
      "aliasSource": "exact",
      "status": "confirmed",
      "facility": {
        "id": 19620,
        "courseId": "67fea78c85645ba340859e0a",
        "name": "Charlotte National Golf Club",
        "address": "Indian Trail, NC 28079, US",
        "locality": "Indian Trail",
        "region": "NC",
        "country": "US",
        "location": [
          -80.586061,
          35.128727
        ],
        "timeZone": "America/New_York"
      },
      "datesChecked": [
        "2026-02-18",
        "2026-02-21",
        "2026-02-28"
      ],
      "teeTimes": [
        28,
        38,
        0
      ]
    },
    {
      "input": "Birkdale Golf Club",
      "city": "Huntersville",
      "alias": "birkdale-golf-club",
      "aliasSource": "exact",
      "status": "listed_only",
      "facility": {
        "id": 1765,
        "courseId": "54f14bf20c8ad60378b01a46",
        "name": "Birkdale Golf Club",
        "address": "16500 Birkdale Commons Pkwy, Huntersville, NC 28078 US",
        "locality": "Huntersville",
        "region": "NC",
        "country": "US",
        "location": [
          -80.85258,
          35.41404
        ],
        "timeZone": "America/New_York"
      },
      "datesChecked": [
        "2026-02-18",
        "2026-02-21",
        "2026-02-28"
      ],
      "teeTimes": [
        0,
        0,
        0
      ]
    },
    {
      "input": "Skybrook Golf Club",
      "city": "Huntersville",
      "alias": "skybrook-golf-club",
      "aliasSource": "exact",
      "status": "listed_only",
      "facility": {
        "id": 10484,
        "courseId": "54f14f5c0c8ad60378b06472",
        "name": "Skybrook Golf Club",
        "address": "14720 Northgreen Dr, Huntersville, NC 28078 US",
        "locality": "Huntersville",
        "region": "NC",
        "country": "US",
        "location": [
          -80.85258,
          35.41404
        ],
        "timeZone": "America/New_York"
      },
      "datesChecked": [
        "2026-02-18",
        "2026-02-21",
        "2026-02-28"
      ],
      "teeTimes": [
        0,
        0,
        0
      ]
    },
    {
      "input": "Mooresville Golf Club",
      "city": "Mooresville",
      "alias": "mooresville-golf-club",
      "aliasSource": "",
      "status": "miss",
      "exactStatus": 404
    },
    {
      "input": "Lake Norman Golf Club",
      "city": "Mooresville",
      "alias": "lake-norman-golf-club",
      "aliasSource": "",
      "status": "miss",
      "exactStatus": 404
    },
    {
      "input": "Mallard Head Country Club",
      "city": "Mooresville",
      "alias": "mallard-head-country-club",
      "aliasSource": "",
      "status": "miss",
      "exactStatus": 404
    },
    {
      "input": "Verdict Ridge Golf \u0026 Country Club",
      "city": "Denver",
      "alias": "verdict-ridge-golf-and-country-club",
      "aliasSource": "exact",
      "status": "listed_only",
      "facility": {
        "id": 1679,
        "courseId": "54f14bea0c8ad60378b01986",
        "name": "Verdict Ridge Golf \u0026 Country Club",
        "address": "7332 Kidville Rd, Denver, NC 28037 US",
        "locality": "Denver",
        "region": "NC",
        "country": "US",
        "location": [
          -81.017079,
          35.512754
        ],
        "timeZone": "America/New_York"
      },
      "datesChecked": [
        "2026-02-18",
        "2026-02-21",
        "2026-02-28"
      ],
      "teeTimes": [
        0,
        0,
        0
      ]
    },
    {
      "input": "Westport Golf Course",
      "city": "Denver",
      "alias": "westport-golf-course",
      "aliasSource": "",
      "status": "miss",
      "exactStatus": 404
    },
    {
      "input": "The 500 Club",
      "city": "Statesville",
      "alias": "the-500-club",
      "aliasSource": "exact",
      "status": "confirmed",
      "facility": {
        "id": 19602,
        "courseId": "67efc0286235f6270bcdae51",
        "name": "Simulators at The 500 Club",
        "address": "Statesville, NC 28677, US",
        "locality": "Statesville",
        "region": "NC",
        "country": "US",
        "location": [
          -80.870854,
          35.747903
        ],
        "timeZone": "America/New_York"
      },
      "datesChecked": [
        "2026-02-18",
        "2026-02-21",
        "2026-02-28"
      ],
      "teeTimes": [
        6,
        4,
        0
      ]
    },
    {
      "input": "River Oaks Golf Club",
      "city": "Statesville",
      "alias": "river-oaks-golf-club",
      "aliasSource": "exact",
      "status": "confirmed",
      "facility": {
        "id": 3216,
        "courseId": "54f14c6a0c8ad60378b024ed",
        "name": "River Oaks Golf Club",
        "address": "233 Broken Arrow Dr., Statesville, NC 28677 US",
        "locality": "Statesville",
        "region": "NC",
        "country": "US",
        "location": [
          -81.044426,
          35.74491
        ],
        "timeZone": "America/New_York"
      },
      "datesChecked": [
        "2026-02-18",
        "2026-02-21",
        "2026-02-28"
      ],
      "teeTimes": [
        49,
        42,
        0
      ]
    },
    {
      "input": "Twin Oaks Golf Club",
      "city": "Statesville",
      "alias": "twin-oaks-golf-club",
      "aliasSource": "exact",
      "status": "confirmed",
      "facility": {
        "id": 1810,
        "courseId": "54f14bf60c8ad60378b01a9f",
        "name": "Twin Oaks Golf Club",
        "address": "320 Twin Oaks Road, Statesville, NC 28625 US",
        "locality": "Statesville",
        "region": "NC",
        "country": "US",
        "location": [
          -80.824184,
          35.775207
        ],
        "timeZone": "America/New_York"
      },
      "datesChecked": [
        "2026-02-18",
        "2026-02-21",
        "2026-02-28"
      ],
      "teeTimes": [
        40,
        36,
        36
      ]
    },
    {
      "input": "Lakewood Golf Club",
      "city": "Statesville",
      "alias": "lakewood-golf-club",
      "aliasSource": "",
      "status": "miss"
    },
    {
      "input": "Rocky River Golf Club",
      "city": "Concord",
      "alias": "rocky-river-golf-club",
      "aliasSource": "exact",
      "status": "confirmed",
      "facility": {
        "id": 1632,
        "courseId": "54f14be60c8ad60378b0192c",
        "name": "Rocky River Golf Club",
        "address": "6900 Bruton Smith Blvd, Concord, NC 28027, US",
        "locality": "Concord",
        "region": "NC",
        "country": "US",
        "location": [
          -80.690117,
          35.361896
        ],
        "timeZone": "America/New_York"
      },
      "datesChecked": [
        "2026-02-18",
        "2026-02-21",
        "2026-02-28"
      ],
      "teeTimes": [
        17,
        19,
        0
      ]
    },
    {
      "input": "Warrior Golf Club",
      "city": "China Grove",
      "alias": "warrior-golf-club",
      "aliasSource": "exact",
      "status": "listed_only",
      "facility": {
        "id": 1658,
        "courseId": "54f14be80c8ad60378b01958",
        "name": "Warrior Golf Club",
        "address": "890 Lake Wright Rd, China Grove, NC 28023 US",
        "locality": "China Grove",
        "region": "NC",
        "country": "US",
        "location": [
          -80.590054,
          35.568791
        ],
        "timeZone": "America/New_York"
      },
      "datesChecked": [
        "2026-02-18",
        "2026-02-21",
        "2026-02-28"
      ],
      "teeTimes": [
        0,
        0,
        0
      ]
    },
    {
      "input": "The Revival Golf Club at the Crescent",
      "city": "Salisbury",
      "alias": "the-revival-golf-club-at-the-crescent",
      "aliasSource": "",
      "status": "miss",
      "exactStatus": 404
    },
    {
      "input": "Corbin Hills Golf Course",
      "city": "Salisbury",
      "alias": "corbin-hills-golf-course",
      "aliasSource": "exact",
      "status": "listed_only",
      "facility": {
        "id": 10139,
        "courseId": "54f14f400c8ad60378b061ba",
        "name": "Corbin Hills Golf Course",
        "address": "431 Wildwood Dr, Salisbury, NC 28146 US",
        "locality": "Salisbury",
        "region": "NC",
        "country": "US",
        "location": [
          -80.429228,
          35.630249
        ],
        "timeZone": "America/New_York"
      },
      "datesChecked": [
        "2026-02-18",
        "2026-02-21",
        "2026-02-28"
      ],
      "teeTimes": [
        0,
        0,
        0
      ]
    },
    {
      "input": "McCanless Golf Club",
      "city": "Salisbury",
      "alias": "mccanless-golf-club",
      "aliasSource": "exact",
      "status": "listed_only",
      "facility": {
        "id": 1926,
        "courseId": "54f14c010c8ad60378b01bac",
        "name": "McCanless Golf Club",
        "address": "3515 Stokes Ferry Road, Salisbury, NC 28145 US",
        "locality": "Salisbury",
        "region": "NC",
        "country": "US",
        "location": [
          -80.432237,
          35.628668
        ],
        "timeZone": "America/New_York"
      },
      "datesChecked": [
        "2026-02-18",
        "2026-02-21",
        "2026-02-28"
      ],
      "teeTimes": [
        0,
        0,
        0
      ]
    },
    {
      "input": "Rolling Hills Golf Club",
      "city": "Salisbury",
      "alias": "rolling-hills-golf-club",
      "aliasSource": "",
      "status": "miss"
    },
    {
      "input": "Sapona Country Club",
      "city": "Lexington",
      "alias": "sapona-country-club",
      "aliasSource": "",
      "status": "miss",
      "exactStatus": 404
    },
    {
      "input": "Monroe Country Club",
      "city": "Monroe",
      "alias": "monroe-country-club",
      "aliasSource": "",
      "status": "miss"
    },
    {
      "input": "Stonebridge Golf Club",
      "city": "Monroe",
      "alias": "stonebridge-golf-club",
      "aliasSource": "",
      "status": "miss"
    },
    {
      "input": "Eagle Chase Golf Club",
      "city": "Marshville",
      "alias": "eagle-chase-golf-club",
      "aliasSource": "exact",
      "status": "confirmed",
      "facility": {
        "id": 1882,
        "courseId": "54f14bfd0c8ad60378b01b43",
        "name": "Eagle Chase Golf Club",
        "address": "3215 Brantley Road, Marshville, NC 28103, US",
        "locality": "Marshville",
        "region": "NC",
        "country": "US",
        "location": [
          -80.388808,
          35.075492
        ],
        "timeZone": "America/New_York"
      },
      "datesChecked": [
        "2026-02-18",
        "2026-02-21",
        "2026-02-28"
      ],
      "teeTimes": [
        22,
        17,
        0
      ]
    },
    {
      "input": "Red Bridge Golf \u0026 Country Club",
      "city": "Locust",
      "alias": "red-bridge-golf-and-country-club",
      "aliasSource": "exact",
      "status": "listed_only",
      "facility": {
        "id": 4378,
        "courseId": "54f14cda0c8ad60378b02f00",
        "name": "Red Bridge Golf \u0026 Country Club",
        "address": "6801 Gatehouse Road, Locust, NC 28097 US",
        "locality": "Locust",
        "region": "NC",
        "country": "US",
        "location": [
          -80.411777,
          35.274695
        ],
        "timeZone": "America/New_York"
      },
      "datesChecked": [
        "2026-02-18",
        "2026-02-21",
        "2026-02-28"
      ],
      "teeTimes": [
        0,
        0,
        0
      ]
    },
    {
      "input": "Catawba Creek Golf Course",
      "city": "Gastonia",
      "alias": "catawba-creek-golf-course",
      "aliasSource": "",
      "status": "miss",
      "exactStatus": 404
    },
    {
      "input": "Crowders Mountain Golf Club",
      "city": "Kings Mountain",
      "alias": "crowders-mountain-golf-club",
      "aliasSource": "",
      "status": "miss",
      "exactStatus": 404
    },
    {
      "input": "Kings Mountain Country Club",
      "city": "Kings Mountain",
      "alias": "kings-mountain-country-club",
      "aliasSource": "",
      "status": "miss"
    },
    {
      "input": "Woodbridge Golf Links",
      "city": "Kings Mountain",
      "alias": "woodbridge-golf-links",
      "aliasSource": "exact",
      "status": "listed_only",
      "facility": {
        "id": 1872,
        "courseId": "54f14bfc0c8ad60378b01b29",
        "name": "Woodbridge Golf Links",
        "address": "1007 New Camp Creek Church Rd, Kings Mountain, NC 28086 US",
        "locality": "Kings Mountain",
        "region": "NC",
        "country": "US",
        "location": [
          -81.442509,
          35.285704
        ],
        "timeZone": "America/New_York"
      },
      "datesChecked": [
        "2026-02-18",
        "2026-02-21",
        "2026-02-28"
      ],
      "teeTimes": [
        0,
        0,
        0
      ]
    },
    {
      "input": "Deer Brook Golf Club",
      "city": "Shelby",
      "alias": "deer-brook-golf-club",
      "aliasSource": "exact",
      "status": "confirmed",
      "facility": {
        "id": 5498,
        "courseId": "54f14d590c8ad60378b03a81",
        "name": "Deer Brook Golf Club",
        "address": "201 Deerbrook Dr, Shelby, NC 28150 US",
        "locality": "Shelby",
        "region": "NC",
        "country": "US",
        "location": [
          -81.499224,
          35.339901
        ],
        "timeZone": "America/New_York"
      },
      "datesChecked": [
        "2026-02-18",
        "2026-02-21",
        "2026-02-28"
      ],
      "teeTimes": [
        42,
        42,
        0
      ]
    },
    {
      "input": "River Bend YMCA Golf Course",
      "city": "Shelby",
      "alias": "river-bend-ymca-golf-club",
      "aliasSource": "swap-golf-club",
      "status": "confirmed",
      "facility": {
        "id": 7423,
        "courseId": "54f14e340c8ad60378b04b2c",
        "name": "River Bend YMCA Golf Club",
        "address": "3005 Longwood Drive, Shelby, NC 28151, US",
        "locality": "Shelby",
        "region": "NC",
        "country": "US",
        "location": [
          -81.54204,
          35.288907
        ],
        "timeZone": "America/New_York"
      },
      "datesChecked": [
        "2026-02-18",
        "2026-02-21",
        "2026-02-28"
      ],
      "teeTimes": [
        57,
        41,
        59
      ]
    },
    {
      "input": "Lincoln Country Club",
      "city": "Lincolnton",
      "alias": "lincoln-country-club",
      "aliasSource": "exact",
      "status": "listed_only",
      "facility": {
        "id": 1625,
        "courseId": "54f14be50c8ad60378b01920",
        "name": "Lincoln Country Club",
        "address": "2052 Country Club Rd, Lincolnton, NC 28092, US",
        "locality": "Lincolnton",
        "region": "NC",
        "country": "US",
        "location": [
          -81.22386,
          35.48514
        ],
        "timeZone": "America/New_York"
      },
      "datesChecked": [
        "2026-02-18",
        "2026-02-21",
        "2026-02-28"
      ],
      "teeTimes": [
        0,
        0,
        0
      ]
    },
    {
      "input": "Glen Oaks Golf Club",
      "city": "Maiden",
      "alias": "glen-oaks-golf-club",
      "aliasSource": "exact",
      "status": "listed_only",
      "facility": {
        "id": 15779,
        "courseId": "5a877f04249f0b0100251ec7",
        "name": "Glen Oaks Golf Club",
        "address": "245 Golf Course Rd, Maiden, NC 28650, US",
        "locality": "Maiden",
        "region": "NC",
        "country": "US",
        "location": [
          -81.216533,
          35.557045
        ],
        "timeZone": "America/New_York"
      },
      "datesChecked": [
        "2026-02-18",
        "2026-02-21",
        "2026-02-28"
      ],
      "teeTimes": [
        0,
        0,
        0
      ]
    },
    {
      "input": "Springfield Golf Club",
      "city": "Fort Mill",
      "alias": "springfield-golf-club",
      "aliasSource": "",
      "status": "miss",
      "exactStatus": 404
    },
    {
      "input": "Fort Mill Golf Club",
      "city": "Fort Mill",
      "alias": "fort-mill-golf-club",
      "aliasSource": "",
      "status": "miss"
    },
    {
      "input": "Tega Cay Golf Club",
      "city": "Tega Cay",
      "alias": "tega-cay-golf-club",
      "aliasSource": "",
      "status": "miss"
    },
    {
      "input": "Carolina Lakes Golf Club",
      "city": "Indian Land",
      "alias": "carolina-lakes-golf-club",
      "aliasSource": "exact",
      "status": "listed_only",
      "facility": {
        "id": 9669,
        "courseId": "54f14f0d0c8ad60378b05ce9",
        "name": "Carolina Lakes Golf Club",
        "address": "53 Carolina Lakes Rd, Sanford, NC 27332 US",
        "locality": "Sanford",
        "region": "NC",
        "country": "US",
        "location": [
          -79.1607,
          35.3983
        ],
        "timeZone": "America/New_York"
      },
      "datesChecked": [
        "2026-02-18",
        "2026-02-21",
        "2026-02-28"
      ],
      "teeTimes": [
        0,
        0,
        0
      ]
    },
    {
      "input": "Waterford Golf Club",
      "city": "Rock Hill",
      "alias": "waterford-golf-club",
      "aliasSource": "",
      "status": "miss"
    },
    {
      "input": "Pinetuck Golf Club",
      "city": "Rock Hill",
      "alias": "pinetuck-golf-club",
      "aliasSource": "",
      "status": "miss"
    },
    {
      "input": "Edgewater Golf Club",
      "city": "Lancaster",
      "alias": "edgewater-golf-club",
      "aliasSource": "",
      "status": "miss"
    },
    {
      "input": "Lancaster Golf Club",
      "city": "Lancaster",
      "alias": "lancaster-golf-club",
      "aliasSource": "",
      "status": "miss"
    },
    {
      "input": "Chester Golf Club",
      "city": "Chester",
      "alias": "chester-golf-club",
      "aliasSource": "",
      "status": "miss"
    },
    {
      "input": "Spring Lake Country Club",
      "city": "York",
      "alias": "spring-lake-country-club",
      "aliasSource": "",
      "status": "miss"
    },
    {
      "input": "Rock Barn Golf \u0026 Spa",
      "city": "Conover",
      "alias": "rock-barn-golf-and-spa",
      "aliasSource": "",
      "status": "miss",
      "exactStatus": 404
    },
    {
      "input": "Tillery Tradition Country Club",
      "city": "Mt Gilead",
      "alias": "tillery-tradition-country-club",
      "aliasSource": "exact",
      "status": "listed_only",
      "facility": {
        "id": 5169,
        "courseId": "54f14d330c8ad60378b036ff",
        "name": "The Tillery Tradition",
        "address": "214 Tradition Dr, Mount Gilead, NC 27306, US",
        "locality": "Mount Gilead",
        "region": "NC",
        "country": "US",
        "location": [
          -80.081533,
          35.287158
        ],
        "timeZone": "America/New_York"
      },
      "datesChecked": [
        "2026-02-18",
        "2026-02-21",
        "2026-02-28"
      ],
      "teeTimes": [
        0,
        0,
        0
      ]
    }
  ],
  "state": "NC",
  "timestamp": "2026-02-17T10:07:49-07:00",
  "totalInput": 52,
  "validationDates": [
    "2026-02-18",
    "2026-02-21",
    "2026-02-28"
  ]
}