{
  "confirmed": 5,
  "elapsed": "1m7.097965875s",
  "errors": 0,
  "listedOnly": 5,
  "misses": 12,
  "platform": "teeitup",
  "results": [
    {
      "input": "Audubon Park Golf Course",
      "city": "New Orleans",
      "alias": "audubon-park-golf-club",
      "aliasSource": "swap-golf-club",
      "status": "confirmed",
      "facility": {
        "id": 1225,
        "courseId": "54f14bbe0c8ad60378b015a0",
        "name": "Audubon Park Golf Club",
        "address": "6500 Magazine Street, New Orleans, LA 70118, US",
        "locality": "New Orleans",
        "region": "LA",
        "country": "US",
        "location": [
          -90.127373,
          29.923771
        ],
        "timeZone": "America/Chicago"
      },
      "datesChecked": [
        "2026-02-18",
        "2026-02-21",
        "2026-02-28"
      ],
      "teeTimes": [
        52,
        44,
        0
      ]
    },
    {
      "input": "Bayou Oaks at City Park - South",
      "city": "New Orleans",
      "alias": "bayou-oaks-at-city-park-south",
      "aliasSource": "",
      "status": "miss",
      "exactStatus": 404
    },
    {
      "input": "Bayou Oaks at City Park - North",
      "city": "New Orleans",
      "alias": "bayou-oaks-at-city-park-north",
      "aliasSource": "",
      "status": "miss",
      "exactStatus": 404
    },
    {
      "input": "Joseph M. Bartholomew Golf Course",
      "city": "New Orleans",
      "alias": "joseph-m-bartholomew-golf-course",
      "aliasSource": "",
      "status": "miss",
      "exactStatus": 404
    },
    {
      "input": "Lakewood Golf Club",
      "city": "New Orleans",
      "alias": "lakewood-golf-club",
      "aliasSource": "exact",
      "status": "confirmed",
      "facility": {
        "id": 441,
        "courseId": "54f14b660c8ad60378b00f4b",
        "name": "Lakewood Golf Club",
        "address": "4801 General Degaulle Dr, New Orleans, LA  70131 US",
        "locality": "New Orleans",
        "region": "LA",
        "country": "US",
        "location": [
          -89.99601,
          29.919781
        ],
        "timeZone": "America/Chicago"
      },
      "datesChecked": [
        "2026-02-18",
        "2026-02-21",
        "2026-02-28"
      ],
      "teeTimes": [
        45,
        45,
        0
      ]
    },
    {
      "input": "Brechtel Memorial Park Municipal Golf Course",
      "city": "New Orleans",
      "alias": "brechtel-memorial-park-municipal-golf-course",
      "aliasSource": "",
      "status": "miss",
      "exactStatus": 404
    },
    {
      "input": "English Turn Golf \u0026 Country Club",
      "city": "New Orleans",
      "alias": "english-turn-golf-and-country-club",
      "aliasSource": "",
      "status": "miss",
      "exactStatus": 404
    },
    {
      "input": "Stonebridge Golf Club of New Orleans",
      "city": "Gretna",
      "alias": "stonebridge-golf-club-of-new-orleans",
      "aliasSource": "exact",
      "status": "listed_only",
      "facility": {
        "id": 615,
        "courseId": "54f14b790c8ad60378b010b5",
        "name": "Stonebridge Golf Club of New Orleans",
        "address": "1500 Stonebridge Drive, Gretna, LA 70056 US",
        "locality": "Gretna",
        "region": "LA",
        "country": "US",
        "location": [
          -90.0338,
          29.8609
        ],
        "timeZone": "America/Chicago"
      },
      "datesChecked": [
        "2026-02-18",
        "2026-02-21",
        "2026-02-28"
      ],
      "teeTimes": [
        0,
        0,
        0
      ]
    },
    {
      "input": "Timberlane Golf \u0026 Recreation",
      "city": "Gretna",
      "alias": "timberlane-golf-and-recreation",
      "aliasSource": "",
      "status": "miss",
      "exactStatus": 404
    },
    {
      "input": "TPC Louisiana",
      "city": "Avondale",
      "alias": "tpc-louisiana",
      "aliasSource": "",
      "status": "miss",
      "exactStatus": 404
    },
    {
      "input": "Grand Ridge Golf Club",
      "city": "Luling",
      "alias": "grand-ridge-golf-club",
      "aliasSource": "exact",
      "status": "confirmed",
      "facility": {
        "id": 539,
        "courseId": "54f14b720c8ad60378b01038",
        "name": "Grand Ridge Golf Club",
        "address": "500 Willowdale Boulevard, Luling, LA 70070 US",
        "locality": "Luling",
        "region": "LA",
        "country": "US",
        "location": [
          -90.3394,
          29.8913
        ],
        "timeZone": "America/Chicago"
      },
      "datesChecked": [
        "2026-02-18",
        "2026-02-21",
        "2026-02-28"
      ],
      "teeTimes": [
        24,
        18,
        0
      ]
    },
    {
      "input": "Cypress Lakes Country Club",
      "city": "Destrehan",
      "alias": "cypress-lakes-country-club",
      "aliasSource": "",
      "status": "miss",
      "exactStatus": 404
    },
    {
      "input": "Fashion Golf \u0026 Country Club",
      "city": "Hahnville",
      "alias": "fashion-golf-and-country-club",
      "aliasSource": "exact",
      "status": "listed_only",
      "facility": {
        "id": 12022,
        "courseId": "54f14fdd0c8ad60378b070e1",
        "name": "Fashion Golf \u0026 Country Club",
        "address": "223 Joe Louis Ln, Hahnville, LA 70057 US",
        "locality": "Hahnville",
        "region": "LA",
        "country": "US",
        "location": [
          -90.408153,
          29.961574
        ],
        "timeZone": "America/Chicago"
      },
      "datesChecked": [
        "2026-02-18",
        "2026-02-21",
        "2026-02-28"
      ],
      "teeTimes": [
        0,
        0,
        0
      ]
    },
    {
      "input": "Eastover Country Club",
      "city": "New Orleans",
      "alias": "eastover-country-club",
      "aliasSource": "",
      "status": "miss",
      "exactStatus": 404
    },
    {
      "input": "Belle Terre Country Club",
      "city": "LaPlace",
      "alias": "belle-terre-country-club",
      "aliasSource": "exact",
      "status": "confirmed",
      "facility": {
        "id": 424,
        "courseId": "54f14b630c8ad60378b00f23",
        "name": "Belle Terre Country Club",
        "address": "111 Fairway Dr, La Place, LA 70068 US",
        "locality": "La Place",
        "region": "LA",
        "country": "US",
        "location": [
          -90.497,
          30.0857
        ],
        "timeZone": "America/Chicago"
      },
      "datesChecked": [
        "2026-02-18",
        "2026-02-21",
        "2026-02-28"
      ],
      "teeTimes": [
        53,
        53,
        0
      ]
    },
    {
      "input": "Riverlands Golf \u0026 Country Club",
      "city": "LaPlace",
      "alias": "riverlands-golf-and-country-club",
      "aliasSource": "exact",
      "status": "listed_only",
      "facility": {
        "id": 5846,
        "courseId": "54f14d800c8ad60378b03dc9",
        "name": "Riverlands Golf \u0026 Country Club",
        "address": "500 Fairway Drive, LaPlace, LA 70068-2099, US",
        "locality": "LaPlace",
        "region": "LA",
        "country": "US",
        "location": [
          -90.48054,
          30.05496
        ],
        "timeZone": "America/Chicago"
      },
      "datesChecked": [
        "2026-02-18",
        "2026-02-21",
        "2026-02-28"
      ],
      "teeTimes": [
        0,
        0,
        0
      ]
    },
    {
      "input": "LaTour Golf Club",
      "city": "Mathews",
      "alias": "latour-golf-club",
      "aliasSource": "",
      "status": "miss",
      "exactStatus": 404
    },
    {
      "input": "Oak Harbor Golf Club",
      "city": "Slidell",
      "alias": "oak-harbor-golf-club",
      "aliasSource": "exact",
      "status": "confirmed",
      "facility": {
        "id": 779,
        "courseId": "54f14b950c8ad60378b01211",
        "name": "Oak Harbor Golf Club",
        "address": "201 Oak Harbor Blvd., Slidell , LA 70458 US",
        "locality": "Slidell ",
        "region": "LA",
        "country": "US",
        "location": [
          -89.7925,
          30.2372
        ],
        "timeZone": "America/Chicago"
      },
      "datesChecked": [
        "2026-02-18",
        "2026-02-21",
        "2026-02-28"
      ],
      "teeTimes": [
        71,
        65,
        0
      ]
    },
    {
      "input": "Royal Golf Club",
      "city": "Slidell",
      "alias": "royal-golf-club",
      "aliasSource": "",
      "status": "miss"
    },
    {
      "input": "Pinewood Country Club",
      "city": "Slidell",
      "alias": "pinewood-country-club",
      "aliasSource": "exact",
      "status": "listed_only",
      "facility": {
        "id": 545,
        "courseId": "54f14b730c8ad60378b0103d",
        "name": "Pinewood Country Club",
        "address": "405 Country Club Boulevard, Slidell, LA 70458 US",
        "locality": "Slidell",
        "region": "LA",
        "country": "US",
        "location": [
          -89.7656,
          30.308
        ],
        "timeZone": "America/Chicago"
      },
      "datesChecked": [
        "2026-02-18",
        "2026-02-21",
        "2026-02-28"
      ],
      "teeTimes": [
        0,
        0,
        0
      ]
    },
    {
      "input": "Abita Springs Golf \u0026 Country Club",
      "city": "Abita Springs",
      "alias": "abita-springs-golf-and-country-club",
      "aliasSource": "exact",
      "status": "listed_only",
      "facility": {
        "id": 618,
        "courseId": "54f14b7a0c8ad60378b010bd",
        "name": "Abita Springs Golf \u0026 Country Club",
        "address": "73433 Oliver Street, Abita Springs, LA 70420 US",
        "locality": "Abita Springs",
        "region": "LA",
        "country": "US",
        "location": [
          -89.9505,
          30.5016
        ],
        "timeZone": "America/Chicago"
      },
      "datesChecked": [
        "2026-02-18",
        "2026-02-21",
        "2026-02-28"
      ],
      "teeTimes": [
        0,
        0,
        0
      ]
    },
    {
      "input": "Covington Country Club",
      "city": "Covington",
      "alias": "covington-country-club",
      "aliasSource": "",
      "status": "miss"
    }
  ],
  "state": "LA",
  "timestamp": "2026-02-15T05:50:34-07:00",
  "totalInput": 22,
  "validationDates": [
    "2026-02-18",
    "2026-02-21",
    "2026-02-28"
  ]
}