{
  "confirmed": 2,
  "elapsed": "5m22.801826875s",
  "errors": 0,
  "listedOnly": 4,
  "misses": 13,
  "platform": "teeitup",
  "results": [
    {
      "input": "Lagoon Park Golf Course",
      "city": "Montgomery",
      "alias": "lagoon-park-golf",
      "aliasSource": "swap-golf",
      "status": "listed_only",
      "facility": {
        "id": 14051,
        "courseId": "5703047da634c47500775efc",
        "name": "Lagoon Park Golf Course",
        "address": "2855 Lagoon Park Dr, Montgomery, AL 36109, US",
        "locality": "Montgomery",
        "region": "AL",
        "country": "US",
        "location": [
          -86.217742,
          32.402373
        ],
        "timeZone": "America/Chicago"
      },
      "datesChecked": [
        "2026-02-18",
        "2026-02-21",
        "2026-02-28"
      ],
      "teeTimes": [
        0,
        0,
        0
      ]
    },
    {
      "input": "Gateway Park Golf Course",
      "city": "Montgomery",
      "alias": "gateway-park-golf-course",
      "aliasSource": "",
      "status": "miss",
      "exactStatus": 404
    },
    {
      "input": "Cottonwood Golf Club",
      "city": "Montgomery",
      "alias": "cottonwood-golf-club-v2",
      "aliasSource": "exact+v2",
      "status": "confirmed",
      "facility": {
        "id": 16841,
        "courseId": "5e1f03aa4cabb501004d41cd",
        "name": "Cottonwood Golf Club",
        "address": "Montgomery, AL 36116, US",
        "locality": "Montgomery",
        "region": "AL",
        "country": "US",
        "location": [
          -86.175886,
          32.254678
        ],
        "timeZone": "America/Chicago"
      },
      "datesChecked": [
        "2026-02-18",
        "2026-02-21",
        "2026-02-28"
      ],
      "teeTimes": [
        56,
        51,
        2
      ]
    },
    {
      "input": "Aroostook Golf Course",
      "city": "Montgomery",
      "alias": "aroostook-golf-course",
      "aliasSource": "",
      "status": "miss",
      "exactStatus": 404
    },
    {
      "input": "Capitol Hill - Judge",
      "city": "Prattville",
      "alias": "capitol-hill",
      "aliasSource": "trim-trailing",
      "status": "listed_only",
      "facility": {
        "id": 2356,
        "courseId": "54f14c290c8ad60378b01f3d",
        "name": "Capitol Hill",
        "address": "200 Constitution Avenue, Prattville, AL 36066 US",
        "locality": "Prattville",
        "region": "AL",
        "country": "US",
        "location": [
          -86.409,
          32.4597
        ],
        "timeZone": "America/Chicago"
      },
      "datesChecked": [
        "2026-02-18",
        "2026-02-21",
        "2026-02-28"
      ],
      "teeTimes": [
        0,
        0,
        0
      ]
    },
    {
      "input": "Capitol Hill - Legislator",
      "city": "Prattville",
      "alias": "capitol-hill-legislator",
      "aliasSource": "",
      "status": "miss",
      "exactStatus": 404
    },
    {
      "input": "Capitol Hill - Senator",
      "city": "Prattville",
      "alias": "capitol-hill-senator",
      "aliasSource": "",
      "status": "miss",
      "exactStatus": 404
    },
    {
      "input": "Prattville Country Club",
      "city": "Prattville",
      "alias": "prattville-country-club",
      "aliasSource": "",
      "status": "miss"
    },
    {
      "input": "Pines Golf Course",
      "city": "Millbrook",
      "alias": "pines-golf-course",
      "aliasSource": "",
      "status": "miss",
      "exactStatus": 404
    },
    {
      "input": "Emerald Mountain Golf Club",
      "city": "Wetumpka",
      "alias": "emerald-mountain-gc",
      "aliasSource": "swap-gc",
      "status": "listed_only",
      "facility": {
        "id": 3205,
        "courseId": "54f14c680c8ad60378b024d6",
        "name": "Emerald Mountain GC",
        "address": "245 Mountain View Rd., Wetumpka, AL 36093-3846 US",
        "locality": "Wetumpka",
        "region": "AL",
        "country": "US",
        "location": [
          -86.106026,
          32.449079
        ],
        "timeZone": "America/Chicago"
      },
      "datesChecked": [
        "2026-02-18",
        "2026-02-21",
        "2026-02-28"
      ],
      "teeTimes": [
        0,
        0,
        0
      ]
    },
    {
      "input": "Quail Walk Golf Course",
      "city": "Wetumpka",
      "alias": "quail-walk-golf-course",
      "aliasSource": "",
      "status": "miss",
      "exactStatus": 404
    },
    {
      "input": "Lakeside Golf \u0026 Country Club",
      "city": "Tallassee",
      "alias": "lakeside-golf-and-country-club",
      "aliasSource": "",
      "status": "miss",
      "exactStatus": 404
    },
    {
      "input": "Cambrian Ridge - Canyon/Loblolly",
      "city": "Greenville",
      "alias": "cambrian-ridge-canyon-loblolly",
      "aliasSource": "",
      "status": "miss",
      "exactStatus": 404
    },
    {
      "input": "Cambrian Ridge - Loblolly/Sherling",
      "city": "Greenville",
      "alias": "cambrian-ridge-loblolly-sherling",
      "aliasSource": "",
      "status": "miss",
      "exactStatus": 404
    },
    {
      "input": "Cambrian Ridge - Sherling/Canyon",
      "city": "Greenville",
      "alias": "cambrian-ridge-sherling-canyon",
      "aliasSource": "",
      "status": "miss",
      "exactStatus": 404
    },
    {
      "input": "Valley Grande Golf Course",
      "city": "Valley Grande",
      "alias": "valley-grande-golf-course",
      "aliasSource": "",
      "status": "miss",
      "exactStatus": 404
    },
    {
      "input": "Craig Golf Course",
      "city": "Selma",
      "alias": "craig-golf-course",
      "aliasSource": "",
      "status": "miss",
      "exactStatus": 404
    },
    {
      "input": "Lakewinds Golf Course",
      "city": "Jacksons Gap",
      "alias": "lakewinds-golf-club",
      "aliasSource": "swap-golf-club",
      "status": "confirmed",
      "facility": {
        "id": 13162,
        "courseId": "5539bd73ce20f00300461bcf",
        "name": "Lakewinds Golf Club",
        "address": "95 County Road 40, Jacksons Gap, AL 36861, US",
        "locality": "Jacksons Gap",
        "region": "AL",
        "country": "US",
        "location": [
          -85.826295,
          32.881495
        ],
        "timeZone": "America/Chicago"
      },
      "datesChecked": [
        "2026-02-18",
        "2026-02-21",
        "2026-02-28"
      ],
      "teeTimes": [
        60,
        53,
        0
      ]
    },
    {
      "input": "StillWaters Golf Course",
      "city": "Dadeville",
      "alias": "stillwaters-golf",
      "aliasSource": "swap-golf",
      "status": "listed_only",
      "facility": {
        "id": 16518,
        "courseId": "5cda139c0ad10f0100b25868",
        "name": "Stillwaters Golf",
        "address": "797 Moonbrook Dr, Dadeville, AL 36853, US",
        "locality": "Dadeville",
        "region": "AL",
        "country": "US",
        "location": [
          -85.804458,
          32.746425
        ],
        "timeZone": "America/Chicago"
      },
      "datesChecked": [
        "2026-02-18",
        "2026-02-21",
        "2026-02-28"
      ],
      "teeTimes": [
        0,
        0,
        0
      ]
    }
  ],
  "state": "AL",
  "timestamp": "2026-02-17T02:31:32-07:00",
  "totalInput": 19,
  "validationDates": [
    "2026-02-18",
    "2026-02-21",
    "2026-02-28"
  ]
}