{
  "confirmed": 8,
  "elapsed": "2m9.476409125s",
  "errors": 0,
  "listedOnly": 9,
  "misses": 25,
  "platform": "teeitup",
  "results": [
    {
      "input": "Crandon Golf at Key Biscayne",
      "city": "Key Biscayne",
      "alias": "crandon-golf-at-key-biscayne",
      "aliasSource": "exact",
      "status": "confirmed",
      "facility": {
        "id": 3648,
        "courseId": "54f14c8f0c8ad60378b02850",
        "name": "Crandon Golf at Key Biscayne",
        "address": "6700 Crandon Blvd, Key Biscayne, FL 33149 US",
        "locality": "Key Biscayne",
        "region": "FL",
        "country": "US",
        "location": [
          -80.165303,
          25.691129
        ],
        "timeZone": "America/New_York"
      },
      "datesChecked": [
        "2026-02-18",
        "2026-02-21",
        "2026-02-28"
      ],
      "teeTimes": [
        32,
        20,
        0
      ]
    },
    {
      "input": "Country Club of Miami - East Course",
      "city": "Miami",
      "alias": "country-club-of-miami-east-course",
      "aliasSource": "",
      "status": "miss",
      "exactStatus": 404
    },
    {
      "input": "Country Club of Miami - West Course",
      "city": "Miami",
      "alias": "country-club-of-miami-west-course",
      "aliasSource": "",
      "status": "miss",
      "exactStatus": 404
    },
    {
      "input": "Palmetto Golf Course",
      "city": "Miami",
      "alias": "palmetto-golf-course",
      "aliasSource": "exact",
      "status": "listed_only",
      "facility": {
        "id": 5988,
        "courseId": "54f14d8d0c8ad60378b03eca",
        "name": "Palmetto Golf Course",
        "address": "9300 SW 152nd St, Miami, FL 33157 US",
        "locality": "Miami",
        "region": "FL",
        "country": "US",
        "location": [
          -80.344755,
          25.628821
        ],
        "timeZone": "America/New_York"
      },
      "datesChecked": [
        "2026-02-18",
        "2026-02-21",
        "2026-02-28"
      ],
      "teeTimes": [
        0,
        0,
        0
      ]
    },
    {
      "input": "Greynolds Golf Course",
      "city": "North Miami Beach",
      "alias": "greynolds-golf-course",
      "aliasSource": "",
      "status": "miss",
      "exactStatus": 404
    },
    {
      "input": "Briar Bay Golf Course",
      "city": "Miami",
      "alias": "briar-bay-golf-course",
      "aliasSource": "exact",
      "status": "listed_only",
      "facility": {
        "id": 6739,
        "courseId": "54f14dea0c8ad60378b045a3",
        "name": "Briar Bay Golf Course",
        "address": "9373 SW 134th St, Miami, FL 33176 US",
        "locality": "Miami",
        "region": "FL",
        "country": "US",
        "location": [
          -80.346307,
          25.645258
        ],
        "timeZone": "America/New_York"
      },
      "datesChecked": [
        "2026-02-18",
        "2026-02-21",
        "2026-02-28"
      ],
      "teeTimes": [
        0,
        0,
        0
      ]
    },
    {
      "input": "Trump National Doral - Blue Monster",
      "city": "Miami",
      "alias": "trump-national-doral-blue-monster",
      "aliasSource": "",
      "status": "miss",
      "exactStatus": 404
    },
    {
      "input": "Trump National Doral - Red Tiger",
      "city": "Miami",
      "alias": "trump-national-doral-red-tiger",
      "aliasSource": "",
      "status": "miss",
      "exactStatus": 404
    },
    {
      "input": "Trump National Doral - Golden Palm",
      "city": "Miami",
      "alias": "trump-national-doral-golden-palm",
      "aliasSource": "",
      "status": "miss",
      "exactStatus": 404
    },
    {
      "input": "Trump National Doral - Silver Fox",
      "city": "Miami",
      "alias": "trump-national-doral-silver-fox",
      "aliasSource": "",
      "status": "miss",
      "exactStatus": 404
    },
    {
      "input": "Miami Beach Golf Club",
      "city": "Miami Beach",
      "alias": "miami-beach-golf-club",
      "aliasSource": "",
      "status": "miss",
      "exactStatus": 404
    },
    {
      "input": "Normandy Shores Golf Club",
      "city": "Miami Beach",
      "alias": "normandy-shores-golf-club",
      "aliasSource": "",
      "status": "miss",
      "exactStatus": 404
    },
    {
      "input": "Biltmore Golf Course",
      "city": "Coral Gables",
      "alias": "biltmore-golf-course",
      "aliasSource": "exact",
      "status": "listed_only",
      "facility": {
        "id": 4485,
        "courseId": "54f14ce50c8ad60378b02ffb",
        "name": "Biltmore Golf Course",
        "address": "1210 Anastasia Ave, Miami, FL 33134 US",
        "locality": "Miami",
        "region": "FL",
        "country": "US",
        "location": [
          -80.270225,
          25.754075
        ],
        "timeZone": "America/New_York"
      },
      "datesChecked": [
        "2026-02-18",
        "2026-02-21",
        "2026-02-28"
      ],
      "teeTimes": [
        0,
        0,
        0
      ]
    },
    {
      "input": "Killian Greens Golf Club",
      "city": "Miami",
      "alias": "killian-greens-golf-club",
      "aliasSource": "exact",
      "status": "confirmed",
      "facility": {
        "id": 849,
        "courseId": "54f14b9d0c8ad60378b012be",
        "name": "Killian Greens Golf Club",
        "address": "9980 SW 104th St., Miami, FL 33176, US",
        "locality": "Miami",
        "region": "FL",
        "country": "US",
        "location": [
          -80.35675,
          25.671855
        ],
        "timeZone": "America/New_York"
      },
      "datesChecked": [
        "2026-02-18",
        "2026-02-21",
        "2026-02-28"
      ],
      "teeTimes": [
        76,
        75,
        1
      ]
    },
    {
      "input": "Miami Shores Country Club",
      "city": "Miami Shores",
      "alias": "miami-shores-country-club",
      "aliasSource": "",
      "status": "miss"
    },
    {
      "input": "Melreese Golf Course",
      "city": "Miami",
      "alias": "melreese-golf-course",
      "aliasSource": "",
      "status": "miss",
      "exactStatus": 404
    },
    {
      "input": "Shula's Golf Club",
      "city": "Miami Lakes",
      "alias": "shulas-golf-club",
      "aliasSource": "",
      "status": "miss",
      "exactStatus": 404
    },
    {
      "input": "JW Marriott Turnberry - Soffer Course",
      "city": "Aventura",
      "alias": "jw-marriott-turnberry-soffer-course",
      "aliasSource": "",
      "status": "miss",
      "exactStatus": 404
    },
    {
      "input": "JW Marriott Turnberry - Miller Course",
      "city": "Aventura",
      "alias": "jw-marriott-turnberry-miller-course",
      "aliasSource": "",
      "status": "miss",
      "exactStatus": 404
    },
    {
      "input": "Costa Del Sol Golf Club",
      "city": "Miami",
      "alias": "costa-del-sol-golf-club",
      "aliasSource": "exact",
      "status": "confirmed",
      "facility": {
        "id": 848,
        "courseId": "54f14b9c0c8ad60378b012bb",
        "name": "Costa del Sol Golf Club",
        "address": "100 Costa Del Sol Blvd., Doral, FL 33178 US",
        "locality": "Doral",
        "region": "FL",
        "country": "US",
        "location": [
          -80.359711,
          25.808584
        ],
        "timeZone": "America/New_York"
      },
      "datesChecked": [
        "2026-02-18",
        "2026-02-21",
        "2026-02-28"
      ],
      "teeTimes": [
        59,
        18,
        0
      ]
    },
    {
      "input": "Miccosukee Golf \u0026 Country Club",
      "city": "Miami",
      "alias": "miccosukee-golf-and-country-club",
      "aliasSource": "",
      "status": "miss"
    },
    {
      "input": "Redland Golf \u0026 Country Club",
      "city": "Homestead",
      "alias": "redland-golf-and-country-club",
      "aliasSource": "exact",
      "status": "confirmed",
      "facility": {
        "id": 4446,
        "courseId": "54f14ce10c8ad60378b02f93",
        "name": "Redland Golf \u0026 Country Club",
        "address": "24451 SW 177th Ave, Homestead, FL 33031 US",
        "locality": "Homestead",
        "region": "FL",
        "country": "US",
        "location": [
          -80.478004,
          25.538999
        ],
        "timeZone": "America/New_York"
      },
      "datesChecked": [
        "2026-02-18",
        "2026-02-21",
        "2026-02-28"
      ],
      "teeTimes": [
        44,
        0,
        0
      ]
    },
    {
      "input": "Jacaranda Golf Club",
      "city": "Plantation",
      "alias": "jacaranda",
      "aliasSource": "base-only",
      "status": "listed_only",
      "facility": {
        "id": 5527,
        "courseId": "54f14d5c0c8ad60378b03abc",
        "name": "Jacaranda Golf Club - West",
        "address": "9200 W Broward Blvd, Plantation, FL 33324 US",
        "locality": "Plantation",
        "region": "FL",
        "country": "US",
        "location": [
          -80.27424,
          26.11212
        ],
        "timeZone": "America/New_York"
      },
      "datesChecked": [
        "2026-02-18",
        "2026-02-21",
        "2026-02-28"
      ],
      "teeTimes": [
        0,
        0,
        0
      ]
    },
    {
      "input": "Plantation Preserve Golf Course",
      "city": "Plantation",
      "alias": "plantation-preserve-golf-course",
      "aliasSource": "exact",
      "status": "listed_only",
      "facility": {
        "id": 3663,
        "courseId": "54f14c900c8ad60378b02869",
        "name": "Plantation Preserve Golf Course",
        "address": "7050 West Broward Blvd., Plantation, FL 33317 US",
        "locality": "Plantation",
        "region": "FL",
        "country": "US",
        "location": [
          -80.239494,
          26.093836
        ],
        "timeZone": "America/New_York"
      },
      "datesChecked": [
        "2026-02-18",
        "2026-02-21",
        "2026-02-28"
      ],
      "teeTimes": [
        0,
        0,
        0
      ]
    },
    {
      "input": "Hollywood Beach Golf Club",
      "city": "Hollywood",
      "alias": "hollywood-beach-golf-resort",
      "aliasSource": "swap-golf-resort",
      "status": "listed_only",
      "facility": {
        "id": 830,
        "courseId": "54f14b9a0c8ad60378b0128f",
        "name": "Hollywood Beach Golf Club",
        "address": "1600 Johnson St., Hollywood, FL 33020 US",
        "locality": "Hollywood",
        "region": "FL",
        "country": "US",
        "location": [
          -80.1413,
          26.018924
        ],
        "timeZone": "America/New_York"
      },
      "datesChecked": [
        "2026-02-18",
        "2026-02-21",
        "2026-02-28"
      ],
      "teeTimes": [
        0,
        0,
        0
      ]
    },
    {
      "input": "Orangebrook Golf Course",
      "city": "Hollywood",
      "alias": "orangebrook-golf-course",
      "aliasSource": "",
      "status": "miss",
      "exactStatus": 404
    },
    {
      "input": "Pembroke Lakes Golf \u0026 Racquet Club",
      "city": "Pembroke Pines",
      "alias": "pembroke-lakes-golf-and-racquet-club",
      "aliasSource": "",
      "status": "miss",
      "exactStatus": 404
    },
    {
      "input": "Grand Palms Golf Club",
      "city": "Pembroke Pines",
      "alias": "grand-palms-golf-resort",
      "aliasSource": "swap-golf-resort",
      "status": "confirmed",
      "facility": {
        "id": 999,
        "courseId": "54f14baa0c8ad60378b013ef",
        "name": "Grand Palms Golf Resort",
        "address": "110 Grand Palms Drive, Pembroke Pines, FL 33027, US",
        "locality": "Pembroke Pines",
        "region": "FL",
        "country": "US",
        "location": [
          -80.351171,
          26.006653
        ],
        "timeZone": "America/New_York"
      },
      "datesChecked": [
        "2026-02-18",
        "2026-02-21",
        "2026-02-28"
      ],
      "teeTimes": [
        48,
        42,
        0
      ]
    },
    {
      "input": "Pompano Beach Golf Course - Pines",
      "city": "Pompano Beach",
      "alias": "pompano-beach-golf-course-pines",
      "aliasSource": "",
      "status": "miss",
      "exactStatus": 404
    },
    {
      "input": "Pompano Beach Golf Course - Palms",
      "city": "Pompano Beach",
      "alias": "pompano-beach-golf-course-palms",
      "aliasSource": "",
      "status": "miss",
      "exactStatus": 404
    },
    {
      "input": "Palm-Aire Country Club - Oaks",
      "city": "Pompano Beach",
      "alias": "palm-aire-country-club-oaks",
      "aliasSource": "",
      "status": "miss",
      "exactStatus": 404
    },
    {
      "input": "Palm-Aire Country Club - Cypress",
      "city": "Pompano Beach",
      "alias": "palm-aire-country-club-cypress",
      "aliasSource": "",
      "status": "miss",
      "exactStatus": 404
    },
    {
      "input": "Deer Creek Golf Club",
      "city": "Deerfield Beach",
      "alias": "deer-creek-golf-club",
      "aliasSource": "",
      "status": "miss"
    },
    {
      "input": "Heron Bay Golf Club",
      "city": "Coral Springs",
      "alias": "heron-bay-golf-club",
      "aliasSource": "exact",
      "status": "listed_only",
      "facility": {
        "id": 3295,
        "courseId": "54f14c700c8ad60378b0258b",
        "name": "Heron Bay Golf Club",
        "address": "11801 Heron Bay Blvd., Coral Springs, FL 33076 US",
        "locality": "Coral Springs",
        "region": "FL",
        "country": "US",
        "location": [
          -80.282961,
          26.30729
        ],
        "timeZone": "America/New_York"
      },
      "datesChecked": [
        "2026-02-18",
        "2026-02-21",
        "2026-02-28"
      ],
      "teeTimes": [
        0,
        0,
        0
      ]
    },
    {
      "input": "Country Club of Coral Springs",
      "city": "Coral Springs",
      "alias": "country-club-of-coral-springs",
      "aliasSource": "exact",
      "status": "confirmed",
      "facility": {
        "id": 4572,
        "courseId": "54f14cef0c8ad60378b030e0",
        "name": "The Country Club of Coral Springs",
        "address": "10800 West Sample Road, Coral Springs, FL 33065, US",
        "locality": "Coral Springs",
        "region": "FL",
        "country": "US",
        "location": [
          -80.269896,
          26.2713578
        ],
        "timeZone": "America/New_York"
      },
      "datesChecked": [
        "2026-02-18",
        "2026-02-21",
        "2026-02-28"
      ],
      "teeTimes": [
        26,
        28,
        0
      ]
    },
    {
      "input": "The Bridges at Springtree Golf Club",
      "city": "Sunrise",
      "alias": "the-bridges-at-springtree-golf-club",
      "aliasSource": "exact",
      "status": "confirmed",
      "facility": {
        "id": 6442,
        "courseId": "54f14dc50c8ad60378b0430c",
        "name": "The Bridges at Springtree Golf Club",
        "address": "8150 Springtree Dr, Fort Lauderdale, FL 33351, US",
        "locality": "Fort Lauderdale",
        "region": "FL",
        "country": "US",
        "location": [
          -80.256303,
          26.170798
        ],
        "timeZone": "America/New_York"
      },
      "datesChecked": [
        "2026-02-18",
        "2026-02-21",
        "2026-02-28"
      ],
      "teeTimes": [
        27,
        0,
        0
      ]
    },
    {
      "input": "Inverrary Country Club",
      "city": "Lauderhill",
      "alias": "inverrary-country-club",
      "aliasSource": "",
      "status": "miss",
      "exactStatus": 404
    },
    {
      "input": "Oriole Golf Club",
      "city": "Margate",
      "alias": "oriole-golf-club",
      "aliasSource": "exact",
      "status": "listed_only",
      "facility": {
        "id": 4773,
        "courseId": "54f14d070c8ad60378b032f5",
        "name": "Oriole Golf Club",
        "address": "8000 Margate Blvd, Margate, FL 33063, US",
        "locality": "Margate",
        "region": "FL",
        "country": "US",
        "location": [
          -80.232833,
          26.242263
        ],
        "timeZone": "America/New_York"
      },
      "datesChecked": [
        "2026-02-18",
        "2026-02-21",
        "2026-02-28"
      ],
      "teeTimes": [
        0,
        0,
        0
      ]
    },
    {
      "input": "Colony West Golf Club",
      "city": "Tamarac",
      "alias": "colony-west",
      "aliasSource": "base-only",
      "status": "confirmed",
      "facility": {
        "id": 2852,
        "courseId": "54f14c4e0c8ad60378b0227e",
        "name": "Colony West Golf Club - Champ Course",
        "address": "6850 Northwest 88th Avenue, Tamarac, FL 33321, US",
        "locality": "Tamarac",
        "region": "FL",
        "country": "US",
        "location": [
          -80.2683917,
          26.2073455
        ],
        "timeZone": "America/New_York"
      },
      "datesChecked": [
        "2026-02-18",
        "2026-02-21",
        "2026-02-28"
      ],
      "teeTimes": [
        16,
        24,
        23
      ]
    },
    {
      "input": "Emerald Hills Golf Club",
      "city": "Hollywood",
      "alias": "emerald-hills-golf-club",
      "aliasSource": "",
      "status": "miss"
    },
    {
      "input": "Hillsboro Pines Golf Course",
      "city": "Deerfield Beach",
      "alias": "hillsboro-pines-golf-club",
      "aliasSource": "swap-golf-club",
      "status": "listed_only",
      "facility": {
        "id": 5466,
        "courseId": "54f14d560c8ad60378b03a24",
        "name": "Hillsboro Pines Golf Club",
        "address": "2410 Century Blvd, Deerfield Beach, FL 33442 US",
        "locality": "Deerfield Beach",
        "region": "FL",
        "country": "US",
        "location": [
          -80.135658,
          26.312532
        ],
        "timeZone": "America/New_York"
      },
      "datesChecked": [
        "2026-02-18",
        "2026-02-21",
        "2026-02-28"
      ],
      "teeTimes": [
        0,
        0,
        0
      ]
    },
    {
      "input": "Bonaventure Town Center Club",
      "city": "Weston",
      "alias": "bonaventure-town-center-club",
      "aliasSource": "",
      "status": "miss",
      "exactStatus": 404
    }
  ],
  "state": "FL",
  "timestamp": "2026-02-15T07:50:40-07:00",
  "totalInput": 42,
  "validationDates": [
    "2026-02-18",
    "2026-02-21",
    "2026-02-28"
  ]
}